{
  "networks": [
    {
      "id": "bbbike",
      "location": {
        "city": "Bielsko-Bia\u0142a",
        "country": "PL",
        "latitude": 49.8225,
        "longitude": 19.044444
      },
      "name": "BBBike"
    },
    {
      "id": "melbourne-bike-share",
      "location": {
        "city": "Melbourne",
        "country": "AU",
        "latitude": -37.814107,
        "longitude": 144.96328
      },
      "name": "Melbourne Bike Share"
    },
    {
      "id": "we-cycle",
      "location": {
        "city": "Aspen, CO",
        "country": "US",
        "latitude": 39.194951,
        "longitude": -106.837002
      },
      "name": "WE-cycle"
    },
    {
      "id": "citybike-wien",
      "location": {
        "city": "Wien",
        "country": "AT",
        "latitude": 48.2081743,
        "longitude": 16.3738189
      },
      "name": "Citybike Wien"
    },
    {
      "id": "decobike-miami-beach",
      "location": {
        "city": "Miami Beach, FL",
        "country": "US",
        "latitude": 25.790654,
        "longitude": -80.1300455
      },
      "name": "Citi Bike Miami"
    },
    {
      "id": "bycyklen",
      "location": {
        "city": "Copenhagen",
        "country": "DK",
        "latitude": 55.673582,
        "longitude": 12.564984
      },
      "name": "Bycyklen"
    },
    {
      "id": "vaibike",
      "location": {
        "city": "Vilagarc\u00eda de Arousa",
        "country": "ES",
        "latitude": 42.5999265,
        "longitude": -8.7885744
      },
      "name": "VaiBike"
    },
    {
      "id": "bicicorunha",
      "location": {
        "city": "A Coru\u00f1a",
        "country": "ES",
        "latitude": 43.3623,
        "longitude": -8.4115
      },
      "name": "Bicicoru\u00f1a"
    },
    {
      "id": "integrabike",
      "location": {
        "city": "Sorocaba",
        "country": "BR",
        "latitude": -23.5015,
        "longitude": -47.4526
      },
      "name": "Integrabike"
    },
    {
      "id": "dukebike",
      "location": {
        "city": "Ipa\u00fassu",
        "country": "BR",
        "latitude": -23.0553,
        "longitude": -49.6237
      },
      "name": "DukeBike"
    },
    {
      "id": "athens-bikes",
      "location": {
        "city": "Athens",
        "country": "GR",
        "latitude": 37.9838,
        "longitude": 23.7275
      },
      "name": "AthensBikes"
    },
    {
      "id": "telofun",
      "location": {
        "city": "Tel Aviv-Yaffo, Giv'atayim, Ramat-Gan",
        "country": "IL",
        "latitude": 32.087053,
        "longitude": 34.789776
      },
      "name": "Tel-O-Fun"
    },
    {
      "id": "bicincitta-valais-central",
      "location": {
        "city": "Sion",
        "country": "CH",
        "latitude": 46.2331221,
        "longitude": 7.360625999999999
      },
      "name": "Bicincitt\u00e0"
    },
    {
      "id": "ford-gobike",
      "location": {
        "city": "San Francisco Bay Area, CA",
        "country": "US",
        "latitude": 37.7141454,
        "longitude": -122.25
      },
      "name": "Ford GoBike"
    },
    {
      "id": "kvb-rad-koln",
      "location": {
        "city": "K\u00f6ln",
        "country": "DE",
        "latitude": 50.9429,
        "longitude": 6.95649
      },
      "name": "KVB Rad"
    },
    {
      "id": "metropolradruhr-bochum",
      "location": {
        "city": "Bochum",
        "country": "DE",
        "latitude": 51.4813,
        "longitude": 7.2133
      },
      "name": "metropolradruhr"
    },
    {
      "id": "metropolradruhr-bottrop",
      "location": {
        "city": "Bottrop",
        "country": "DE",
        "latitude": 51.5263,
        "longitude": 6.94611
      },
      "name": "metropolradruhr"
    },
    {
      "id": "metropolradruhr-duisburg",
      "location": {
        "city": "Duisburg",
        "country": "DE",
        "latitude": 51.4487,
        "longitude": 6.77513
      },
      "name": "metropolradruhr"
    },
    {
      "id": "metropolradruhr-gelsenkirchen",
      "location": {
        "city": "Gelsenkirchen",
        "country": "DE",
        "latitude": 51.5404,
        "longitude": 7.07039
      },
      "name": "metropolradruhr"
    },
    {
      "id": "metropolradruhr-herne",
      "location": {
        "city": "Herne",
        "country": "DE",
        "latitude": 51.5363,
        "longitude": 7.21493
      },
      "name": "metropolradruhr"
    },
    {
      "id": "metropolradruhr-oberhausen",
      "location": {
        "city": "Oberhausen",
        "country": "DE",
        "latitude": 51.4936,
        "longitude": 6.85169
      },
      "name": "metropolradruhr"
    },
    {
      "id": "metropolradruhr-mulheim-adr",
      "location": {
        "city": "M\u00fclheim a.d.R.",
        "country": "DE",
        "latitude": 51.4308,
        "longitude": 6.87401
      },
      "name": "metropolradruhr"
    },
    {
      "id": "ebikestation-holzgerlingen",
      "location": {
        "city": "Holzgerlingen",
        "country": "DE",
        "latitude": 48.6388,
        "longitude": 9.0096
      },
      "name": "ebikestation"
    },
    {
      "id": "ebikestation-filderstadt",
      "location": {
        "city": "Filderstadt",
        "country": "DE",
        "latitude": 48.6588,
        "longitude": 9.22585
      },
      "name": "ebikestation"
    },
    {
      "id": "ebikestation-schorndorf",
      "location": {
        "city": "Schorndorf",
        "country": "DE",
        "latitude": 48.8015,
        "longitude": 9.52962
      },
      "name": "ebikestation"
    },
    {
      "id": "nextbike-malta",
      "location": {
        "city": "Malta",
        "country": "MT",
        "latitude": 35.9192,
        "longitude": 14.4889
      },
      "name": "Nextbike"
    },
    {
      "id": "ebikestation-remseck-am-neckar",
      "location": {
        "city": "Remseck am Neckar",
        "country": "DE",
        "latitude": 48.8767,
        "longitude": 9.26179
      },
      "name": "ebikestation"
    },
    {
      "id": "ebikestation-fellbach",
      "location": {
        "city": "Fellbach",
        "country": "DE",
        "latitude": 48.8166,
        "longitude": 9.27967
      },
      "name": "ebikestation"
    },
    {
      "id": "pruszkowski-rower-miejski-pruszkow",
      "location": {
        "city": "Pruszk\u00f3w",
        "country": "PL",
        "latitude": 52.1637,
        "longitude": 20.8018
      },
      "name": "Pruszkowski Rower Miejski"
    },
    {
      "id": "zabrzanski-rower-miejski-zabrze",
      "location": {
        "city": "Zabrze",
        "country": "PL",
        "latitude": 50.3249,
        "longitude": 18.7857
      },
      "name": "Zabrza\u0144ski Rower Miejski"
    },
    {
      "id": "decobike-san-diego",
      "location": {
        "city": "San Diego, CA",
        "country": "US",
        "latitude": 32.715738,
        "longitude": -117.1610838
      },
      "name": "Decobike San Diego"
    },
    {
      "id": "tigullionbike",
      "location": {
        "city": "Sestri Levante - Lavagna",
        "country": "IT",
        "latitude": 44.272554,
        "longitude": 9.395714
      },
      "name": "Tigullionbike"
    },
    {
      "id": "portofino-park-and-bike",
      "location": {
        "city": "Santa Margherita Ligure - Portofino - Camogli",
        "country": "IT",
        "latitude": 44.335084,
        "longitude": 9.211264
      },
      "name": "Portofino Park and Bike"
    },
    {
      "id": "ascoli-piceno",
      "location": {
        "city": "Ascoli Piceno",
        "country": "IT",
        "latitude": 42.85,
        "longitude": 13.583333
      },
      "name": "Ascoli Piceno"
    },
    {
      "id": "arbike",
      "location": {
        "city": "Arezzo",
        "country": "IT",
        "latitude": 43.473333,
        "longitude": 11.87
      },
      "name": "ARbike"
    },
    {
      "id": "biella",
      "location": {
        "city": "Biella",
        "country": "IT",
        "latitude": 45.5775,
        "longitude": 8.051111
      },
      "name": "Biella"
    },
    {
      "id": "bigi",
      "location": {
        "city": "Bergamo",
        "country": "IT",
        "latitude": 45.695,
        "longitude": 9.67
      },
      "name": "BiGi"
    },
    {
      "id": "bici-in-busto",
      "location": {
        "city": "Busto Arsizio",
        "country": "IT",
        "latitude": 45.610555,
        "longitude": 8.852062
      },
      "name": "Bici in Busto"
    },
    {
      "id": "cuneo",
      "location": {
        "city": "Cuneo",
        "country": "IT",
        "latitude": 44.384238,
        "longitude": 7.541428
      },
      "name": "Cuneo"
    },
    {
      "id": "free-bike-sharing",
      "location": {
        "city": "Frosinone",
        "country": "IT",
        "latitude": 41.645081,
        "longitude": 13.342123
      },
      "name": "FRee Bike sharing"
    },
    {
      "id": "lecco",
      "location": {
        "city": "Lecco",
        "country": "IT",
        "latitude": 45.8565698,
        "longitude": 9.397670399999999
      },
      "name": "Bicincitt\u00e0"
    },
    {
      "id": "manerba-in-bici",
      "location": {
        "city": "Manerba del Garda",
        "country": "IT",
        "latitude": 45.561179,
        "longitude": 10.559406
      },
      "name": "Manerba in Bici"
    },
    {
      "id": "mar-e-bici",
      "location": {
        "city": "Marciana Marina",
        "country": "IT",
        "latitude": 42.805855,
        "longitude": 10.196514
      },
      "name": "Mar e Bici"
    },
    {
      "id": "novara",
      "location": {
        "city": "Novara",
        "country": "IT",
        "latitude": 45.44574,
        "longitude": 8.622165
      },
      "name": "Novara"
    },
    {
      "id": "parkinbici",
      "location": {
        "city": "Parco Nazionale del Gargano",
        "country": "IT",
        "latitude": 41.7817081,
        "longitude": 15.8516421
      },
      "name": "Parkinbici"
    },
    {
      "id": "goodbike",
      "location": {
        "city": "Padova",
        "country": "IT",
        "latitude": 45.4064349,
        "longitude": 11.8767611
      },
      "name": "GoodBike"
    },
    {
      "id": "parma",
      "location": {
        "city": "Parma",
        "country": "IT",
        "latitude": 44.801485,
        "longitude": 10.3279036
      },
      "name": "Parma"
    },
    {
      "id": "bici-perugia",
      "location": {
        "city": "Perugia",
        "country": "IT",
        "latitude": 43.1107168,
        "longitude": 12.3908279
      },
      "name": "Bici Perugia"
    },
    {
      "id": "pavia-in-bici",
      "location": {
        "city": "Pavia",
        "country": "IT",
        "latitude": 45.1847248,
        "longitude": 9.1582069
      },
      "name": "Pavia in bici"
    },
    {
      "id": "piacenza",
      "location": {
        "city": "Piacenza",
        "country": "IT",
        "latitude": 45.0473754,
        "longitude": 9.6865813
      },
      "name": "Piacenza"
    },
    {
      "id": "pinerolo",
      "location": {
        "city": "Pinerolo",
        "country": "IT",
        "latitude": 44.8850256,
        "longitude": 7.3499953
      },
      "name": "Pinerolo"
    },
    {
      "id": "reggio-emilia",
      "location": {
        "city": "Reggio Emilia",
        "country": "IT",
        "latitude": 44.6989932,
        "longitude": 10.6296859
      },
      "name": "Reggio Emilia"
    },
    {
      "id": "rimini",
      "location": {
        "city": "Rimini",
        "country": "IT",
        "latitude": 44.0570817,
        "longitude": 12.5646003
      },
      "name": "Rimini"
    },
    {
      "id": "saluzzo",
      "location": {
        "city": "Saluzzo",
        "country": "IT",
        "latitude": 44.6445404,
        "longitude": 7.492735499999999
      },
      "name": "Saluzzo"
    },
    {
      "id": "terni",
      "location": {
        "city": "Terni",
        "country": "IT",
        "latitude": 42.5636168,
        "longitude": 12.6426604
      },
      "name": "Terni"
    },
    {
      "id": "tirano-in-bici",
      "location": {
        "city": "Tirano",
        "country": "IT",
        "latitude": 46.216168,
        "longitude": 10.1696056
      },
      "name": "Tirano in Bici"
    },
    {
      "id": "bicischio",
      "location": {
        "city": "Schio",
        "country": "IT",
        "latitude": 45.7170517,
        "longitude": 11.3597702
      },
      "name": "BiciSchio"
    },
    {
      "id": "savigliano",
      "location": {
        "city": "Savigliano",
        "country": "IT",
        "latitude": 44.6470327,
        "longitude": 7.662463499999999
      },
      "name": "Savigliano"
    },
    {
      "id": "udine",
      "location": {
        "city": "Udine",
        "country": "IT",
        "latitude": 46.0710668,
        "longitude": 13.2345794
      },
      "name": "Udine"
    },
    {
      "id": "ustica",
      "location": {
        "city": "Ustica",
        "country": "IT",
        "latitude": 38.7031179,
        "longitude": 13.1682675
      },
      "name": "Ustica"
    },
    {
      "id": "bici-co",
      "location": {
        "city": "Como",
        "country": "IT",
        "latitude": 45.8080597,
        "longitude": 9.0851765
      },
      "name": "BICI&CO"
    },
    {
      "id": "speziainbici",
      "location": {
        "city": "La Spezia",
        "country": "IT",
        "latitude": 44.1024504,
        "longitude": 9.824082599999999
      },
      "name": "Speziainbici"
    },
    {
      "id": "ciclopi",
      "location": {
        "city": "Pisa",
        "country": "IT",
        "latitude": 43.7228386,
        "longitude": 10.4016888
      },
      "name": "Ciclopi"
    },
    {
      "id": "venezia",
      "location": {
        "city": "Venezia",
        "country": "IT",
        "latitude": 45.4408474,
        "longitude": 12.3155151
      },
      "name": "Venezia"
    },
    {
      "id": "to-bike",
      "location": {
        "city": "Torino",
        "country": "IT",
        "latitude": 45.07098200000001,
        "longitude": 7.685676
      },
      "name": "[TO]BIKE"
    },
    {
      "id": "cagliari",
      "location": {
        "city": "Cagliari",
        "country": "IT",
        "latitude": 39.220817,
        "longitude": 9.121399
      },
      "name": "Cagliari"
    },
    {
      "id": "gimme-bike",
      "location": {
        "city": "Varese",
        "country": "IT",
        "latitude": 45.8183902,
        "longitude": 8.823913
      },
      "name": "Gimme Bike"
    },
    {
      "id": "sellero",
      "location": {
        "city": "Sellero",
        "country": "IT",
        "latitude": 46.06304765446406,
        "longitude": 10.353434085845947
      },
      "name": "Sellero"
    },
    {
      "id": "ugento",
      "location": {
        "city": "Ugento",
        "country": "IT",
        "latitude": 39.9273518,
        "longitude": 18.1582962
      },
      "name": "Ugento"
    },
    {
      "id": "prata-camportaccio",
      "location": {
        "city": "Prata Camportaccio",
        "country": "IT",
        "latitude": 46.3042146,
        "longitude": 9.3964914
      },
      "name": "Prata Camportaccio"
    },
    {
      "id": "longanoinbici",
      "location": {
        "city": "Barcellona Pozzo di Gotto",
        "country": "IT",
        "latitude": 38.149812517944284,
        "longitude": 15.212116241455078
      },
      "name": "LonganoinBici"
    },
    {
      "id": "civitavecchia",
      "location": {
        "city": "Civitavecchia",
        "country": "IT",
        "latitude": 42.0937524,
        "longitude": 11.7922462
      },
      "name": "Civitavecchia"
    },
    {
      "id": "cassano-d-adda",
      "location": {
        "city": "Cassano d'Adda",
        "country": "IT",
        "latitude": 45.5309616,
        "longitude": 9.5155813
      },
      "name": "Cassano d'Adda"
    },
    {
      "id": "rietinbici",
      "location": {
        "city": "Rieti",
        "country": "IT",
        "latitude": 42.40262397383167,
        "longitude": 12.86099910736084
      },
      "name": "Rietinbici"
    },
    {
      "id": "bianzone-in-bici",
      "location": {
        "city": "Bianzone",
        "country": "IT",
        "latitude": 46.188197,
        "longitude": 10.109354
      },
      "name": "Bianzone in Bici"
    },
    {
      "id": "lecce",
      "location": {
        "city": "Lecce",
        "country": "IT",
        "latitude": 40.35040350928062,
        "longitude": 18.177824020385742
      },
      "name": "lecce"
    },
    {
      "id": "castellucchio",
      "location": {
        "city": "Castellucchio",
        "country": "IT",
        "latitude": 45.15047821582959,
        "longitude": 10.651202201843262
      },
      "name": "Castellucchio"
    },
    {
      "id": "enna",
      "location": {
        "city": "Enna",
        "country": "IT",
        "latitude": 37.56342572664775,
        "longitude": 14.27973747253418
      },
      "name": "Enna"
    },
    {
      "id": "notoinbici",
      "location": {
        "city": "Noto",
        "country": "IT",
        "latitude": 36.889437754839854,
        "longitude": 15.074658393859863
      },
      "name": "NotoinBici"
    },
    {
      "id": "carbonia",
      "location": {
        "city": "Carbonia",
        "country": "IT",
        "latitude": 39.167222,
        "longitude": 8.522222
      },
      "name": "Carbonia"
    },
    {
      "id": "pordenone",
      "location": {
        "city": "Pordenone",
        "country": "IT",
        "latitude": 45.94790101663391,
        "longitude": 12.674491020251475
      },
      "name": "Pordenone"
    },
    {
      "id": "mobike",
      "location": {
        "city": "Genova",
        "country": "IT",
        "latitude": 44.40430089372731,
        "longitude": 8.92908986230462
      },
      "name": "MoBike"
    },
    {
      "id": "scegli-in-bici",
      "location": {
        "city": "Cremona",
        "country": "IT",
        "latitude": 45.134914104864116,
        "longitude": 10.0222648619018
      },
      "name": "Scegli in Bici"
    },
    {
      "id": "e-motion-pergine-valsugana",
      "location": {
        "city": "Pergine Valsugana",
        "country": "IT",
        "latitude": 46.06050419001399,
        "longitude": 11.239041694195503
      },
      "name": "e.motion"
    },
    {
      "id": "e-motion-trento",
      "location": {
        "city": "Trento",
        "country": "IT",
        "latitude": 46.06643205823519,
        "longitude": 11.122145390351879
      },
      "name": "e.motion"
    },
    {
      "id": "we-love-bike",
      "location": {
        "city": "Lodi",
        "country": "IT",
        "latitude": 45.3097228,
        "longitude": 9.503715999999999
      },
      "name": "We Love bike"
    },
    {
      "id": "e-motion-rovereto",
      "location": {
        "city": "Rovereto",
        "country": "IT",
        "latitude": 45.88710661061543,
        "longitude": 11.042242751867644
      },
      "name": "e.motion"
    },
    {
      "id": "monopoli-bike",
      "location": {
        "city": "Monopoli",
        "country": "IT",
        "latitude": 40.94519109440738,
        "longitude": 17.311687995336918
      },
      "name": "Monopoli BIKE"
    },
    {
      "id": "andria",
      "location": {
        "city": "Andria",
        "country": "IT",
        "latitude": 41.224346932834,
        "longitude": 16.296983922753956
      },
      "name": "Andria in Bici"
    },
    {
      "id": "bicinquartucciu",
      "location": {
        "city": "Quartucciu",
        "country": "IT",
        "latitude": 39.25043149806156,
        "longitude": 9.179296426489255
      },
      "name": "BicinQuartucciu"
    },
    {
      "id": "olbia-bike",
      "location": {
        "city": "Olbia",
        "country": "IT",
        "latitude": 40.9240543,
        "longitude": 9.4994397
      },
      "name": "Olbia Bike"
    },
    {
      "id": "savona",
      "location": {
        "city": "Savona",
        "country": "IT",
        "latitude": 44.29516444397244,
        "longitude": 8.463126708984431
      },
      "name": "Savona"
    },
    {
      "id": "brindisi",
      "location": {
        "city": "Brindisi",
        "country": "IT",
        "latitude": 40.637580319936106,
        "longitude": 17.940774547082572
      },
      "name": "BrindisiByBike"
    },
    {
      "id": "alba",
      "location": {
        "city": "Alba",
        "country": "IT",
        "latitude": 44.716667,
        "longitude": 8.083333
      },
      "name": "Alba"
    },
    {
      "id": "tradate",
      "location": {
        "city": "Tradate",
        "country": "IT",
        "latitude": 45.70938576720161,
        "longitude": 8.915993391601548
      },
      "name": "Tradate"
    },
    {
      "id": "chivasso",
      "location": {
        "city": "Chivasso",
        "country": "IT",
        "latitude": 45.189765,
        "longitude": 7.888935
      },
      "name": "Chivasso"
    },
    {
      "id": "ossola",
      "location": {
        "city": "Santa Maria Maggiore - Malesco - Villette",
        "country": "IT",
        "latitude": 46.127196,
        "longitude": 8.499169
      },
      "name": "Comunit\u00e0 Montana Valli dell'Ossola"
    },
    {
      "id": "jesinbici",
      "location": {
        "city": "Jesi",
        "country": "IT",
        "latitude": 43.522601,
        "longitude": 13.244448
      },
      "name": "JesinBici"
    },
    {
      "id": "nbici",
      "location": {
        "city": "Pamplona",
        "country": "ES",
        "latitude": 42.8116631,
        "longitude": -1.6482653
      },
      "name": "nbici"
    },
    {
      "id": "treviso",
      "location": {
        "city": "Treviso",
        "country": "IT",
        "latitude": 45.6669011,
        "longitude": 12.243039
      },
      "name": "Treviso"
    },
    {
      "id": "sondrio",
      "location": {
        "city": "Sondrio",
        "country": "IT",
        "latitude": 46.1698583,
        "longitude": 9.8787674
      },
      "name": "Sondrio"
    },
    {
      "id": "vercelli",
      "location": {
        "city": "Vercelli",
        "country": "IT",
        "latitude": 45.32022720000001,
        "longitude": 8.418573499999999
      },
      "name": "Vercelli"
    },
    {
      "id": "denver",
      "location": {
        "city": "Denver, CO",
        "country": "US",
        "latitude": 39.72055,
        "longitude": -104.95253
      },
      "name": "Denver B-cycle"
    },
    {
      "id": "boulder",
      "location": {
        "city": "Boulder, CO",
        "country": "US",
        "latitude": 40.00811,
        "longitude": -105.26385
      },
      "name": "Boulder B-cycle"
    },
    {
      "id": "broward",
      "location": {
        "city": "Fort Lauderdale, FL",
        "country": "US",
        "latitude": 26.12026,
        "longitude": -80.14819
      },
      "name": "Broward B-cycle"
    },
    {
      "id": "desmoines",
      "location": {
        "city": "Des Moines, IA",
        "country": "US",
        "latitude": 41.6005448,
        "longitude": -93.6091064
      },
      "name": "Des Moines B-cycle"
    },
    {
      "id": "charlotte",
      "location": {
        "city": "Charlotte, NC",
        "country": "US",
        "latitude": 35.22716,
        "longitude": -80.83855
      },
      "name": "Charlotte B-cycle"
    },
    {
      "id": "fortworth",
      "location": {
        "city": "Fort Worth, TX",
        "country": "US",
        "latitude": 32.7516,
        "longitude": -97.32888
      },
      "name": "Fort Worth Bike Sharing"
    },
    {
      "id": "greenbikeslc",
      "location": {
        "city": "Salt Lake City",
        "country": "US",
        "latitude": 40.76745,
        "longitude": -111.88736
      },
      "name": "GREENbike"
    },
    {
      "id": "greenville",
      "location": {
        "city": "Greenville, SC",
        "country": "US",
        "latitude": 34.85261759999999,
        "longitude": -82.3940104
      },
      "name": "Greenville B-cycle"
    },
    {
      "id": "houston",
      "location": {
        "city": "Houston, TX",
        "country": "US",
        "latitude": 29.75983,
        "longitude": -95.36949
      },
      "name": "Houston B-cycle"
    },
    {
      "id": "kansascity",
      "location": {
        "city": "Kansas City, MO",
        "country": "US",
        "latitude": 39.0999,
        "longitude": -94.5857
      },
      "name": "B-cycle"
    },
    {
      "id": "madison",
      "location": {
        "city": "Madison, WI",
        "country": "US",
        "latitude": 43.07571,
        "longitude": -89.38527
      },
      "name": "B-cycle"
    },
    {
      "id": "nashville",
      "location": {
        "city": "Nashville, TN",
        "country": "US",
        "latitude": 36.1666667,
        "longitude": -86.7833333
      },
      "name": "Nashville B-cycle"
    },
    {
      "id": "omaha",
      "location": {
        "city": "Omaha, NE",
        "country": "US",
        "latitude": 41.25832,
        "longitude": -96.00853
      },
      "name": "Heartland B-cycle"
    },
    {
      "id": "sanantonio",
      "location": {
        "city": "San Antonio, TX",
        "country": "US",
        "latitude": 29.43701,
        "longitude": -98.48236
      },
      "name": "San Antonio B-cycle"
    },
    {
      "id": "spartanburg",
      "location": {
        "city": "Spartanburg, SC",
        "country": "US",
        "latitude": 34.94867,
        "longitude": -81.93345
      },
      "name": "Spartanburg BCycle"
    },
    {
      "id": "greatrides",
      "location": {
        "city": "Fargo, ND",
        "country": "US",
        "latitude": 46.89248,
        "longitude": -96.80095
      },
      "name": "Great Rides Bike Share"
    },
    {
      "id": "mvgmeinrad",
      "location": {
        "city": "Mainz",
        "country": "DE",
        "latitude": 49.992862,
        "longitude": 8.247253
      },
      "name": "MVGmeinrad"
    },
    {
      "id": "velobike",
      "location": {
        "city": "Astana",
        "country": "KZ",
        "latitude": 51.166667,
        "longitude": 71.416667
      },
      "name": "Velobike"
    },
    {
      "id": "velobike-moscow",
      "location": {
        "city": "Moscow",
        "country": "RU",
        "latitude": 55.75,
        "longitude": 37.616667
      },
      "name": "Velobike"
    },
    {
      "id": "wowcycle-reykjavik",
      "location": {
        "city": "Reykjav\u00edk",
        "country": "IS",
        "latitude": 64.128288,
        "longitude": -21.827774
      },
      "name": "WOW Citybike"
    },
    {
      "id": "bicincitta-san-teodoro",
      "location": {
        "city": "San Teodoro",
        "country": "IT",
        "latitude": 40.7722837,
        "longitude": 9.6695458
      },
      "name": "Bicincitt\u00e0"
    },
    {
      "id": "lodzki-rower-publiczny-lodz",
      "location": {
        "city": "L\u00f3d\u017a",
        "country": "PL",
        "latitude": 51.7689,
        "longitude": 19.4554
      },
      "name": "\u0141\u00f3dzki Rower Publiczny"
    },
    {
      "id": "lrm-lublin-lublin",
      "location": {
        "city": "Lublin",
        "country": "PL",
        "latitude": 51.2469,
        "longitude": 22.5697
      },
      "name": "LRM Lublin"
    },
    {
      "id": "grm-grodzisk-grodzisk-mazowiecki",
      "location": {
        "city": "Grodzisk Mazowiecki",
        "country": "PL",
        "latitude": 52.113,
        "longitude": 20.6265
      },
      "name": "GRM Grodzisk"
    },
    {
      "id": "lrm-lublin-swidnik",
      "location": {
        "city": "\u015awidnik",
        "country": "PL",
        "latitude": 51.2194,
        "longitude": 22.6988
      },
      "name": "LRM Lublin"
    },
    {
      "id": "katowice-bike-katowice",
      "location": {
        "city": "Katowice",
        "country": "PL",
        "latitude": 50.2594,
        "longitude": 19.0215
      },
      "name": "Katowice Bike"
    },
    {
      "id": "rower-gminny-michalowice-michalowice",
      "location": {
        "city": "Micha\u0142owice",
        "country": "PL",
        "latitude": 52.1686,
        "longitude": 20.9957
      },
      "name": "Rower Gminny Micha\u0142owice"
    },
    {
      "id": "gliwicki-rower-miejski-sgrm-gliwice",
      "location": {
        "city": "Gliwice",
        "country": "PL",
        "latitude": 50.2918,
        "longitude": 18.669
      },
      "name": "Gliwicki Rower Miejski (SGRM)"
    },
    {
      "id": "prm-stacje-sponsorskie-nextbike-prm",
      "location": {
        "city": "Pozna\u0144",
        "country": "PL",
        "latitude": 52.4077,
        "longitude": 16.9323
      },
      "name": "Stacje Sponsorskie Nextbike PRM"
    },
    {
      "id": "radomski-rower-miejski-radom",
      "location": {
        "city": "Radom",
        "country": "PL",
        "latitude": 51.3994,
        "longitude": 21.1655
      },
      "name": "Radomski Rower Miejski"
    },
    {
      "id": "zgierski-rower-miejski-zgierz",
      "location": {
        "city": "Zgierz",
        "country": "PL",
        "latitude": 51.8602,
        "longitude": 19.4118
      },
      "name": "Zgierski Rower Miejski"
    },
    {
      "id": "tyski-rower-miejski-tychy",
      "location": {
        "city": "Tychy",
        "country": "PL",
        "latitude": 50.1304,
        "longitude": 18.9436
      },
      "name": "Tyski Rower Miejski"
    },
    {
      "id": "ok-bike-kedzierzyn-kozle",
      "location": {
        "city": "K\u0119dzierzyn-Ko\u017ale",
        "country": "PL",
        "latitude": 50.3421,
        "longitude": 18.2049
      },
      "name": "OK Bike"
    },
    {
      "id": "kolobrzeski-rower-miejski-kolobrzeg",
      "location": {
        "city": "Ko\u0142obrzeg",
        "country": "PL",
        "latitude": 54.1762,
        "longitude": 15.5761
      },
      "name": "Ko\u0142obrzeski Rower Miejski"
    },
    {
      "id": "siedlecki-rower-miejski-siedlce",
      "location": {
        "city": "Siedlce",
        "country": "PL",
        "latitude": 52.1668,
        "longitude": 22.2891
      },
      "name": "Siedlecki Rower Miejski"
    },
    {
      "id": "bike-s-srm-szczecin",
      "location": {
        "city": "Szczecin",
        "country": "PL",
        "latitude": 53.4301,
        "longitude": 14.5498
      },
      "name": "Bike_S SRM"
    },
    {
      "id": "austin",
      "location": {
        "city": "Austin, TX",
        "country": "US",
        "latitude": 30.26408,
        "longitude": -97.74355
      },
      "name": "Austin B-cycle"
    },
    {
      "id": "santiago",
      "location": {
        "city": "Santiago",
        "country": "CL",
        "latitude": -33.457,
        "longitude": -70.648
      },
      "name": "Bike Santiago"
    },
    {
      "id": "indiana-pacers-bikeshare",
      "location": {
        "city": "Indianapolis, IN",
        "country": "US",
        "latitude": 39.76593,
        "longitude": -86.16216
      },
      "name": "Indiana Pacers Bikeshare"
    },
    {
      "id": "bublr-bikes",
      "location": {
        "city": "Milwaukee, WI",
        "country": "US",
        "latitude": 43.0369,
        "longitude": -87.89667
      },
      "name": "Bublr Bikes"
    },
    {
      "id": "columbia-county",
      "location": {
        "city": "Evans, GA",
        "country": "US",
        "latitude": 33.5375,
        "longitude": -82.127778
      },
      "name": "Columbia County B-cycle"
    },
    {
      "id": "catbike",
      "location": {
        "city": "Savannah, GA",
        "country": "US",
        "latitude": 32.016667,
        "longitude": -81.116667
      },
      "name": "CAT Bike"
    },
    {
      "id": "rapid-city",
      "location": {
        "city": "Rapid City, SD",
        "country": "US",
        "latitude": 44.076,
        "longitude": -103.228
      },
      "name": "Rapid City B-cycle"
    },
    {
      "id": "velobleu",
      "location": {
        "city": "Nice",
        "country": "FR",
        "latitude": 43.695949,
        "longitude": 7.271413
      },
      "name": "V\u00e9lo Bleu"
    },
    {
      "id": "dkvelo",
      "location": {
        "city": "Dunkerque",
        "country": "FR",
        "latitude": 51.0383,
        "longitude": 2.3775
      },
      "name": "DK'V\u00e9lo"
    },
    {
      "id": "velocea",
      "location": {
        "city": "Vannes",
        "country": "FR",
        "latitude": 47.6559,
        "longitude": -2.7603
      },
      "name": "V\u00e9loc\u00e9a"
    },
    {
      "id": "vel-in",
      "location": {
        "city": "Calais",
        "country": "FR",
        "latitude": 50.95,
        "longitude": 1.85
      },
      "name": "V\u00e9l'in"
    },
    {
      "id": "onroll-a-rua",
      "location": {
        "city": "A R\u00faa",
        "country": "ES",
        "latitude": 42.392049,
        "longitude": -7.114634
      },
      "name": "Onroll"
    },
    {
      "id": "idecycle",
      "location": {
        "city": "Pau",
        "country": "FR",
        "latitude": 43.2951,
        "longitude": -0.370797
      },
      "name": "IDECycle"
    },
    {
      "id": "vlille",
      "location": {
        "city": "Lille",
        "country": "FR",
        "latitude": 50.62925,
        "longitude": 3.057256
      },
      "name": "V'lille"
    },
    {
      "id": "onroll-albacete",
      "location": {
        "city": "Albacete",
        "country": "ES",
        "latitude": 38.98913,
        "longitude": -1.858485
      },
      "name": "Onroll"
    },
    {
      "id": "onroll-alhama-de-murcia",
      "location": {
        "city": "Alhama de Murcia",
        "country": "ES",
        "latitude": 37.849831,
        "longitude": -1.424891
      },
      "name": "Onroll"
    },
    {
      "id": "onroll-almunecar",
      "location": {
        "city": "Almu\u00f1\u00e9car",
        "country": "ES",
        "latitude": 36.735789,
        "longitude": -3.688828
      },
      "name": "Onroll"
    },
    {
      "id": "onroll-antequera",
      "location": {
        "city": "Antequera",
        "country": "ES",
        "latitude": 37.018427,
        "longitude": -4.563775
      },
      "name": "Onroll"
    },
    {
      "id": "onroll-aranda-de-duero",
      "location": {
        "city": "Aranda de Duero",
        "country": "ES",
        "latitude": 41.667601,
        "longitude": -3.689526
      },
      "name": "Onroll"
    },
    {
      "id": "onroll-aranjuez",
      "location": {
        "city": "Aranjuez",
        "country": "ES",
        "latitude": 40.03097,
        "longitude": -3.605742
      },
      "name": "Onroll"
    },
    {
      "id": "onroll-badajoz",
      "location": {
        "city": "Badajoz",
        "country": "ES",
        "latitude": 38.873627,
        "longitude": -6.99451
      },
      "name": "Onroll"
    },
    {
      "id": "onroll-baeza",
      "location": {
        "city": "Baeza",
        "country": "ES",
        "latitude": 37.99537,
        "longitude": -3.468248
      },
      "name": "Onroll"
    },
    {
      "id": "onroll-benidorm",
      "location": {
        "city": "Benidorm",
        "country": "ES",
        "latitude": 38.541251,
        "longitude": -0.126808
      },
      "name": "Onroll"
    },
    {
      "id": "onroll-blanca",
      "location": {
        "city": "Blanca",
        "country": "ES",
        "latitude": 38.178195,
        "longitude": -1.372402
      },
      "name": "Onroll"
    },
    {
      "id": "onroll-cieza",
      "location": {
        "city": "Cieza",
        "country": "ES",
        "latitude": 38.239139,
        "longitude": -1.417262
      },
      "name": "Onroll"
    },
    {
      "id": "onroll-don-benito-villanueva",
      "location": {
        "city": "Don Benito - Villanueva",
        "country": "ES",
        "latitude": 38.964699,
        "longitude": -5.829693
      },
      "name": "Onroll"
    },
    {
      "id": "onroll-guadalajara",
      "location": {
        "city": "Guadalajara",
        "country": "ES",
        "latitude": 40.633021,
        "longitude": -3.166097
      },
      "name": "Onroll"
    },
    {
      "id": "onroll-elche",
      "location": {
        "city": "Elche",
        "country": "ES",
        "latitude": 38.2668,
        "longitude": -0.696217
      },
      "name": "Onroll"
    },
    {
      "id": "onroll-el-campello",
      "location": {
        "city": "El Campello",
        "country": "ES",
        "latitude": 38.419616,
        "longitude": -0.398388
      },
      "name": "Onroll"
    },
    {
      "id": "onroll-jaen",
      "location": {
        "city": "Ja\u00e9n",
        "country": "ES",
        "latitude": 37.777738,
        "longitude": -3.790758
      },
      "name": "Onroll"
    },
    {
      "id": "onroll-lalin",
      "location": {
        "city": "Lal\u00edn",
        "country": "ES",
        "latitude": 42.658626,
        "longitude": -8.114976
      },
      "name": "Onroll"
    },
    {
      "id": "onroll-las-palmas",
      "location": {
        "city": "Las Palmas de Gran Canaria",
        "country": "ES",
        "latitude": 28.124302,
        "longitude": -15.425994
      },
      "name": "Onroll"
    },
    {
      "id": "onroll-montilla",
      "location": {
        "city": "Montilla",
        "country": "ES",
        "latitude": 37.584151,
        "longitude": -4.641359
      },
      "name": "Onroll"
    },
    {
      "id": "onroll-mula",
      "location": {
        "city": "Mula",
        "country": "ES",
        "latitude": 38.040805,
        "longitude": -1.497451
      },
      "name": "Onroll"
    },
    {
      "id": "onroll-novelda",
      "location": {
        "city": "Novelda",
        "country": "ES",
        "latitude": 38.386447,
        "longitude": -0.767134
      },
      "name": "Onroll"
    },
    {
      "id": "onroll-o-barco",
      "location": {
        "city": "O Barco",
        "country": "ES",
        "latitude": 42.413993,
        "longitude": -6.982913
      },
      "name": "Onroll"
    },
    {
      "id": "onroll-paiporta",
      "location": {
        "city": "Paiporta",
        "country": "ES",
        "latitude": 39.427609,
        "longitude": -0.416876
      },
      "name": "Onroll"
    },
    {
      "id": "onroll-priego-de-cordoba",
      "location": {
        "city": "Priego de C\u00f3rdoba",
        "country": "ES",
        "latitude": 37.440517,
        "longitude": -4.201188
      },
      "name": "Onroll"
    },
    {
      "id": "onroll-pinto",
      "location": {
        "city": "Pinto",
        "country": "ES",
        "latitude": 40.245741,
        "longitude": -3.698611
      },
      "name": "Onroll"
    },
    {
      "id": "onroll-palencia",
      "location": {
        "city": "Palencia",
        "country": "ES",
        "latitude": 42.005639,
        "longitude": -4.527022
      },
      "name": "Onroll"
    },
    {
      "id": "onroll-puerto-lumbreras",
      "location": {
        "city": "Puerto Lumbreras",
        "country": "ES",
        "latitude": 37.556652,
        "longitude": -1.811508
      },
      "name": "Onroll"
    },
    {
      "id": "onroll-puertollano",
      "location": {
        "city": "Puertollano",
        "country": "ES",
        "latitude": 38.691396,
        "longitude": -4.107794
      },
      "name": "Onroll"
    },
    {
      "id": "onroll-redondela",
      "location": {
        "city": "Redondela",
        "country": "ES",
        "latitude": 42.299964,
        "longitude": -8.615428
      },
      "name": "Onroll"
    },
    {
      "id": "onroll-salamanca",
      "location": {
        "city": "Salamanca",
        "country": "ES",
        "latitude": 40.966771,
        "longitude": -5.665432
      },
      "name": "Onroll"
    },
    {
      "id": "onroll-san-javier",
      "location": {
        "city": "San Javier",
        "country": "ES",
        "latitude": 37.783704,
        "longitude": -0.808097
      },
      "name": "Onroll"
    },
    {
      "id": "onroll-san-pedro",
      "location": {
        "city": "San Pedro del Pinatar",
        "country": "ES",
        "latitude": 37.827578,
        "longitude": -0.783944
      },
      "name": "Onroll"
    },
    {
      "id": "onroll-sant-joan",
      "location": {
        "city": "Sant Joan d'Alacant",
        "country": "ES",
        "latitude": 38.399839,
        "longitude": -0.434522
      },
      "name": "Onroll"
    },
    {
      "id": "onroll-soria",
      "location": {
        "city": "Soria",
        "country": "ES",
        "latitude": 41.763653,
        "longitude": -2.467069
      },
      "name": "Onroll"
    },
    {
      "id": "onroll-segovia",
      "location": {
        "city": "Segovia",
        "country": "ES",
        "latitude": 40.941941,
        "longitude": -4.112397
      },
      "name": "Onroll"
    },
    {
      "id": "onroll-talavera",
      "location": {
        "city": "Talavera de la Reina",
        "country": "ES",
        "latitude": 39.961829,
        "longitude": -4.830319
      },
      "name": "Onroll"
    },
    {
      "id": "onroll-ubeda",
      "location": {
        "city": "\u00dabeda",
        "country": "ES",
        "latitude": 38.011463,
        "longitude": -3.373276
      },
      "name": "Onroll"
    },
    {
      "id": "onroll-via-verde",
      "location": {
        "city": "Noia - Portosin - Porto do Son",
        "country": "ES",
        "latitude": 42.768127,
        "longitude": -8.908513
      },
      "name": "Onroll Via Verde"
    },
    {
      "id": "onroll-vinaros",
      "location": {
        "city": "Vinar\u00f2s",
        "country": "ES",
        "latitude": 40.468258,
        "longitude": 0.466972
      },
      "name": "Onroll"
    },
    {
      "id": "onroll-villaquilambre",
      "location": {
        "city": "Villaquilambre",
        "country": "ES",
        "latitude": 42.642358,
        "longitude": -5.535311
      },
      "name": "Onroll"
    },
    {
      "id": "onroll-universidad-de-granada",
      "location": {
        "city": "Universidad de Granada, Granada",
        "country": "ES",
        "latitude": 37.182438,
        "longitude": -3.604219
      },
      "name": "Onroll"
    },
    {
      "id": "bicileon",
      "location": {
        "city": "Le\u00f3n",
        "country": "ES",
        "latitude": 42.5987263,
        "longitude": -5.5670959
      },
      "name": "Bicileon"
    },
    {
      "id": "bikebh",
      "location": {
        "city": "Belo Horizonte",
        "country": "BR",
        "latitude": -19.920793,
        "longitude": -43.922165
      },
      "name": "BikeBH"
    },
    {
      "id": "bikesantos",
      "location": {
        "city": "Santos",
        "country": "BR",
        "latitude": -23.954052,
        "longitude": -46.333345
      },
      "name": "BikeSantos"
    },
    {
      "id": "bikepetrolina",
      "location": {
        "city": "Petrolina",
        "country": "BR",
        "latitude": -9.389049,
        "longitude": -40.502751
      },
      "name": "BikePetrolina"
    },
    {
      "id": "bikebrasilia",
      "location": {
        "city": "Bras\u00edlia",
        "country": "BR",
        "latitude": -15.795115,
        "longitude": -47.887424
      },
      "name": "BikeBrasilia"
    },
    {
      "id": "callabike-darmstadt",
      "location": {
        "city": "Darmstadt",
        "country": "DE",
        "latitude": 49.8707135,
        "longitude": 8.6527299
      },
      "name": "Call-A-Bike Darmstadt"
    },
    {
      "id": "konrad",
      "location": {
        "city": "Kassel",
        "country": "DE",
        "latitude": 51.3148861,
        "longitude": 9.4606148
      },
      "name": "Konrad"
    },
    {
      "id": "callabike-berlin",
      "location": {
        "city": "Berlin",
        "country": "DE",
        "latitude": 52.5075419,
        "longitude": 13.4251364
      },
      "name": "Call-A-Bike Berlin"
    },
    {
      "id": "callabike-frankfurt",
      "location": {
        "city": "Frankfurt am Main",
        "country": "DE",
        "latitude": 50.121212,
        "longitude": 8.6365638
      },
      "name": "Call-A-Bike Frankfurt"
    },
    {
      "id": "callabike-frankfurt-airport",
      "location": {
        "city": "Frankfurt am Main Airport",
        "country": "DE",
        "latitude": 50.037933,
        "longitude": 8.562152
      },
      "name": "Call-A-Bike Frankfurt Airport"
    },
    {
      "id": "stadtrad",
      "location": {
        "city": "Hamburg",
        "country": "DE",
        "latitude": 53.558572,
        "longitude": 9.9278215
      },
      "name": "StadtRAD Hamburg"
    },
    {
      "id": "callabike-koln",
      "location": {
        "city": "K\u00f6ln",
        "country": "DE",
        "latitude": 50.9572449,
        "longitude": 6.9673223
      },
      "name": "Call-A-Bike K\u00f6ln"
    },
    {
      "id": "callabike-luneburg",
      "location": {
        "city": "L\u00fcneburg",
        "country": "DE",
        "latitude": 53.2390538,
        "longitude": 10.4226391
      },
      "name": "Call-A-Bike L\u00fcneburg"
    },
    {
      "id": "callabike-marburg",
      "location": {
        "city": "Marburg",
        "country": "DE",
        "latitude": 50.7983011,
        "longitude": 8.7428139
      },
      "name": "Call-A-Bike Marburg"
    },
    {
      "id": "callabike-munchen",
      "location": {
        "city": "M\u00fcnchen",
        "country": "DE",
        "latitude": 48.1549107,
        "longitude": 11.5418357
      },
      "name": "Call-A-Bike M\u00fcnchen"
    },
    {
      "id": "callabike-russelsheim",
      "location": {
        "city": "R\u00fcsselsheim",
        "country": "DE",
        "latitude": 49.9820031,
        "longitude": 8.4528392
      },
      "name": "Call-A-Bike R\u00fcsselsheim"
    },
    {
      "id": "callabike-stuttgart",
      "location": {
        "city": "Stuttgart",
        "country": "DE",
        "latitude": 48.779209,
        "longitude": 9.1772152
      },
      "name": "Call-A-Bike Stuttgart"
    },
    {
      "id": "callabike-wiesbaden",
      "location": {
        "city": "Wiesbaden",
        "country": "DE",
        "latitude": 50.0724825,
        "longitude": 8.2483534
      },
      "name": "Call-A-Bike Wiesbaden"
    },
    {
      "id": "bikemi",
      "location": {
        "city": "Milano",
        "country": "IT",
        "latitude": 45.4654542,
        "longitude": 9.186516
      },
      "name": "BikeMi"
    },
    {
      "id": "bizi",
      "location": {
        "city": "Zaragoza",
        "country": "ES",
        "latitude": 41.6487908,
        "longitude": -0.8895811
      },
      "name": "Bizi"
    },
    {
      "id": "bicing",
      "location": {
        "city": "Barcelona",
        "country": "ES",
        "latitude": 41.3850639,
        "longitude": 2.1734035
      },
      "name": "Bicing"
    },
    {
      "id": "ecobici",
      "location": {
        "city": "Cd de M\u00e9xico",
        "country": "MX",
        "latitude": 19.4326077,
        "longitude": -99.133208
      },
      "name": "EcoBici"
    },
    {
      "id": "velo-antwerpen",
      "location": {
        "city": "Antwerpen",
        "country": "BE",
        "latitude": 51.216667,
        "longitude": 4.4
      },
      "name": "Velo Antwerpen"
    },
    {
      "id": "cyclic",
      "location": {
        "city": "Rouen",
        "country": "FR",
        "latitude": 49.44323199999999,
        "longitude": 1.099971
      },
      "name": "cy'clic"
    },
    {
      "id": "velib",
      "location": {
        "city": "Paris",
        "country": "FR",
        "latitude": 48.856614,
        "longitude": 2.3522219
      },
      "name": "Velib' M\u00e9trop\u00f4le"
    },
    {
      "id": "velo",
      "location": {
        "city": "Toulouse",
        "country": "FR",
        "latitude": 43.604652,
        "longitude": 1.444209
      },
      "name": "V\u00e9l\u00f4"
    },
    {
      "id": "veloh",
      "location": {
        "city": "Luxembourg",
        "country": "LU",
        "latitude": 49.6301025,
        "longitude": 6.1520185
      },
      "name": "Veloh"
    },
    {
      "id": "valenbisi",
      "location": {
        "city": "Valencia",
        "country": "ES",
        "latitude": 39.4699075,
        "longitude": -0.3762881
      },
      "name": "Valenbisi"
    },
    {
      "id": "goeteborg",
      "location": {
        "city": "G\u00f6teborg",
        "country": "SE",
        "latitude": 57.70887,
        "longitude": 11.97456
      },
      "name": "Styr & St\u00e4ll"
    },
    {
      "id": "tusbic",
      "location": {
        "city": "Santander",
        "country": "ES",
        "latitude": 43.46230569999999,
        "longitude": -3.8099803
      },
      "name": "Tusbic"
    },
    {
      "id": "bysykkel-lillestrom",
      "location": {
        "city": "Lillestr\u00f8m",
        "country": "NO",
        "latitude": 59.9559696,
        "longitude": 11.0503785
      },
      "name": "Bysykkel"
    },
    {
      "id": "velam",
      "location": {
        "city": "Amiens",
        "country": "FR",
        "latitude": 49.894067,
        "longitude": 2.295753
      },
      "name": "Velam"
    },
    {
      "id": "velocite-mulhouse",
      "location": {
        "city": "Mulhouse",
        "country": "FR",
        "latitude": 47.750839,
        "longitude": 7.335888
      },
      "name": "V\u00e9loCit\u00e9"
    },
    {
      "id": "velov",
      "location": {
        "city": "Lyon",
        "country": "FR",
        "latitude": 45.764043,
        "longitude": 4.835659
      },
      "name": "V\u00e9lo'V"
    },
    {
      "id": "bicikelj",
      "location": {
        "city": "Ljubljana",
        "country": "SI",
        "latitude": 46.05645089999999,
        "longitude": 14.5080702
      },
      "name": "Bicikelj"
    },
    {
      "id": "sevici",
      "location": {
        "city": "Sevilla",
        "country": "ES",
        "latitude": 37.3880961,
        "longitude": -5.9823299
      },
      "name": "Sevici"
    },
    {
      "id": "li-bia-velo",
      "location": {
        "city": "Namur",
        "country": "BE",
        "latitude": 50.465328,
        "longitude": 4.867665
      },
      "name": "Li bia velo"
    },
    {
      "id": "velostanlib",
      "location": {
        "city": "Nancy",
        "country": "FR",
        "latitude": 48.692054,
        "longitude": 6.184417
      },
      "name": "v\u00e9lOstan'lib"
    },
    {
      "id": "cristolib",
      "location": {
        "city": "Cr\u00e9teil",
        "country": "FR",
        "latitude": 48.790367,
        "longitude": 2.455572
      },
      "name": "Cristolib"
    },
    {
      "id": "villo",
      "location": {
        "city": "Bruxelles",
        "country": "BE",
        "latitude": 50.8503396,
        "longitude": 4.3517103
      },
      "name": "villo"
    },
    {
      "id": "velo2",
      "location": {
        "city": "Cergy",
        "country": "FR",
        "latitude": 49.03561699999999,
        "longitude": 2.060325
      },
      "name": "Velo2"
    },
    {
      "id": "vilnius-cyclocity",
      "location": {
        "city": "Vilnius",
        "country": "LT",
        "latitude": 54.6871555,
        "longitude": 25.2796514
      },
      "name": "Cyclocity"
    },
    {
      "id": "toyama-cyclocity",
      "location": {
        "city": "\u5bcc\u5c71\u5e02",
        "country": "JP",
        "latitude": 36.6959518,
        "longitude": 137.2136768
      },
      "name": "cyclocity"
    },
    {
      "id": "velik",
      "location": {
        "city": "\u041a\u0430\u0437\u0430\u043d\u044c",
        "country": "RU",
        "latitude": 55.7949414,
        "longitude": 49.1050445
      },
      "name": "Veli'k"
    },
    {
      "id": "le-velo",
      "location": {
        "city": "Marseille",
        "country": "FR",
        "latitude": 43.296482,
        "longitude": 5.36978
      },
      "name": "Le v\u00e9lo"
    },
    {
      "id": "bicloo",
      "location": {
        "city": "Nantes",
        "country": "FR",
        "latitude": 47.218371,
        "longitude": -1.553621
      },
      "name": "Bicloo"
    },
    {
      "id": "velocite-besancon",
      "location": {
        "city": "Besan\u00e7on",
        "country": "FR",
        "latitude": 47.237829,
        "longitude": 6.024053899999999
      },
      "name": "V\u00e9loCit\u00e9"
    },
    {
      "id": "bicipalma",
      "location": {
        "city": "Palma",
        "country": "ES",
        "latitude": 39.57119,
        "longitude": 2.646634
      },
      "name": "Bicipalma"
    },
    {
      "id": "ciclosampa",
      "location": {
        "city": "S\u00e3o Paulo",
        "country": "BR",
        "latitude": -23.55,
        "longitude": -46.6333
      },
      "name": "CicloSampa"
    },
    {
      "id": "girocleta",
      "location": {
        "city": "Girona",
        "country": "ES",
        "latitude": 41.9794005,
        "longitude": 2.8214264
      },
      "name": "Girocleta"
    },
    {
      "id": "easybike-didymoteicho",
      "location": {
        "city": "Didymoteicho",
        "country": "GR",
        "latitude": 41.3502539849,
        "longitude": 26.4972960949
      },
      "name": "EasyBike"
    },
    {
      "id": "easybike-ioannina",
      "location": {
        "city": "Ioannina",
        "country": "GR",
        "latitude": 39.6639818,
        "longitude": 20.8522784
      },
      "name": "EasyBike"
    },
    {
      "id": "easybike-karditsa",
      "location": {
        "city": "Karditsa",
        "country": "GR",
        "latitude": 39.3634604,
        "longitude": 21.9211192
      },
      "name": "EasyBike"
    },
    {
      "id": "easybike-kavala",
      "location": {
        "city": "Kavala",
        "country": "GR",
        "latitude": 40.9369068,
        "longitude": 24.4122164
      },
      "name": "EasyBike"
    },
    {
      "id": "easybike-komotini",
      "location": {
        "city": "Komotini",
        "country": "GR",
        "latitude": 41.117833,
        "longitude": 25.4041307
      },
      "name": "EasyBike"
    },
    {
      "id": "easybike-nicosia",
      "location": {
        "city": "Nicosia",
        "country": "CY",
        "latitude": 35.1739302,
        "longitude": 33.364726
      },
      "name": "EasyBike"
    },
    {
      "id": "thessbike",
      "location": {
        "city": "Thessaloniki",
        "country": "GR",
        "latitude": 40.6403167,
        "longitude": 22.9352716
      },
      "name": "ThessBike"
    },
    {
      "id": "easybike-irakleio",
      "location": {
        "city": "Irakleio",
        "country": "GR",
        "latitude": 35.338735,
        "longitude": 25.144213
      },
      "name": "EasyBike"
    },
    {
      "id": "easybike-mani",
      "location": {
        "city": "Mani",
        "country": "GR",
        "latitude": 41.4097472,
        "longitude": 26.4024952
      },
      "name": "EasyBike"
    },
    {
      "id": "ecobici-buenos-aires",
      "location": {
        "city": "Buenos Aires",
        "country": "AR",
        "latitude": -34.630665,
        "longitude": -58.41156
      },
      "name": "Ecobici"
    },
    {
      "id": "encicla",
      "location": {
        "city": "Medellin",
        "country": "CO",
        "latitude": 6.254942,
        "longitude": -75.567982
      },
      "name": "EnCicla"
    },
    {
      "id": "bicicletar",
      "location": {
        "city": "Fortaleza",
        "country": "BR",
        "latitude": -3.7321944,
        "longitude": -38.510347
      },
      "name": "Bicicletar"
    },
    {
      "id": "cajubike",
      "location": {
        "city": "Aracaj\u00fa",
        "country": "BR",
        "latitude": -10.987263,
        "longitude": -37.051898
      },
      "name": "CajuBike"
    },
    {
      "id": "nextbike-leipzig",
      "location": {
        "city": "Leipzig",
        "country": "DE",
        "latitude": 51.3415,
        "longitude": 12.3625
      },
      "name": "Nextbike"
    },
    {
      "id": "nextbike-luzern",
      "location": {
        "city": "Luzern",
        "country": "CH",
        "latitude": 47.0472,
        "longitude": 8.30446
      },
      "name": "Nextbike"
    },
    {
      "id": "nextbike-tubingen",
      "location": {
        "city": "T\u00fcbingen",
        "country": "DE",
        "latitude": 48.5203,
        "longitude": 9.05591
      },
      "name": "Nextbike"
    },
    {
      "id": "nextbike-munchen",
      "location": {
        "city": "M\u00fcnchen",
        "country": "DE",
        "latitude": 48.1358,
        "longitude": 11.5356
      },
      "name": "Nextbike"
    },
    {
      "id": "nextbike-wachau",
      "location": {
        "city": "Wachau",
        "country": "AT",
        "latitude": 48.3188,
        "longitude": 15.4166
      },
      "name": "Nextbike"
    },
    {
      "id": "nextbike-tulln",
      "location": {
        "city": "Tulln",
        "country": "AT",
        "latitude": 48.3269,
        "longitude": 16.0569
      },
      "name": "Nextbike"
    },
    {
      "id": "nextbike-triestingtal",
      "location": {
        "city": "Triestingtal",
        "country": "AT",
        "latitude": 47.9421,
        "longitude": 16.1149
      },
      "name": "Nextbike"
    },
    {
      "id": "nextbike-thermenregion",
      "location": {
        "city": "Thermenregion",
        "country": "AT",
        "latitude": 47.9892,
        "longitude": 16.2646
      },
      "name": "Nextbike"
    },
    {
      "id": "nextbike-flensburg",
      "location": {
        "city": "Flensburg",
        "country": "DE",
        "latitude": 54.7804,
        "longitude": 9.43571
      },
      "name": "Nextbike"
    },
    {
      "id": "nextbike-romerland",
      "location": {
        "city": "R\u00f6merland",
        "country": "AT",
        "latitude": 48.0909,
        "longitude": 16.853
      },
      "name": "Nextbike"
    },
    {
      "id": "nextbike-offenburg",
      "location": {
        "city": "Offenburg",
        "country": "DE",
        "latitude": 48.4721,
        "longitude": 7.94243
      },
      "name": "Nextbike"
    },
    {
      "id": "nextbike-potsdam",
      "location": {
        "city": "Potsdam",
        "country": "DE",
        "latitude": 52.3997,
        "longitude": 13.0676
      },
      "name": "Nextbike"
    },
    {
      "id": "nextbike-unteres-traisental",
      "location": {
        "city": "Unteres Traisental",
        "country": "AT",
        "latitude": 48.1111,
        "longitude": 15.8176
      },
      "name": "Nextbike"
    },
    {
      "id": "nextbike-10vorwien",
      "location": {
        "city": "10vorWien",
        "country": "AT",
        "latitude": 48.3403,
        "longitude": 16.279
      },
      "name": "Nextbike"
    },
    {
      "id": "nextbike-marchfeld",
      "location": {
        "city": "Marchfeld",
        "country": "AT",
        "latitude": 48.2407,
        "longitude": 16.9093
      },
      "name": "Nextbike"
    },
    {
      "id": "nextbike-norderstedt",
      "location": {
        "city": "Norderstedt",
        "country": "DE",
        "latitude": 53.6969,
        "longitude": 10.002
      },
      "name": "Nextbike"
    },
    {
      "id": "nextbike-konya",
      "location": {
        "city": "Konya",
        "country": "TR",
        "latitude": 37.8715,
        "longitude": 32.4957
      },
      "name": "Nextbike"
    },
    {
      "id": "nextbike-traisen-golsental",
      "location": {
        "city": "Traisen-G\u00f6lsental",
        "country": "AT",
        "latitude": 47.9439,
        "longitude": 15.639
      },
      "name": "Nextbike"
    },
    {
      "id": "nextbike-laa-an-der-thaya",
      "location": {
        "city": "Laa an der Thaya",
        "country": "AT",
        "latitude": 48.7196,
        "longitude": 16.3878
      },
      "name": "Nextbike"
    },
    {
      "id": "nextbike-sudheide",
      "location": {
        "city": "S\u00fcdheide",
        "country": "AT",
        "latitude": 48.1077,
        "longitude": 16.3937
      },
      "name": "Nextbike"
    },
    {
      "id": "nextbike-christchurch",
      "location": {
        "city": "Christchurch",
        "country": "NZ",
        "latitude": -43.5341,
        "longitude": 172.621
      },
      "name": "Nextbike"
    },
    {
      "id": "nextbike-limassol",
      "location": {
        "city": "Limassol",
        "country": "CY",
        "latitude": 34.6823,
        "longitude": 33.0464
      },
      "name": "Nextbike"
    },
    {
      "id": "nextbike-gutersloh",
      "location": {
        "city": "G\u00fctersloh",
        "country": "DE",
        "latitude": 51.9049,
        "longitude": 8.39275
      },
      "name": "Nextbike"
    },
    {
      "id": "nextbike-tullnerfeld-west",
      "location": {
        "city": "Tullnerfeld West",
        "country": "AT",
        "latitude": 48.2994,
        "longitude": 15.9065
      },
      "name": "Nextbike"
    },
    {
      "id": "nextbike-hollabrunn",
      "location": {
        "city": "Hollabrunn",
        "country": "AT",
        "latitude": 48.562,
        "longitude": 16.0785
      },
      "name": "Nextbike"
    },
    {
      "id": "nextbike-wienerwald",
      "location": {
        "city": "WienerWald",
        "country": "AT",
        "latitude": 48.1926,
        "longitude": 16.141
      },
      "name": "Nextbike"
    },
    {
      "id": "nextbike-dobrich",
      "location": {
        "city": "Dobrich",
        "country": "BG",
        "latitude": 43.567,
        "longitude": 27.8285
      },
      "name": "Nextbike"
    },
    {
      "id": "bykystations-uae-dubai",
      "location": {
        "city": "Dubai",
        "country": "AE",
        "latitude": 25.2435,
        "longitude": 55.2722
      },
      "name": "BYKYstations UAE"
    },
    {
      "id": "nextbike-zagreb",
      "location": {
        "city": "Zagreb",
        "country": "HR",
        "latitude": 45.7988,
        "longitude": 15.9643
      },
      "name": "Nextbike"
    },
    {
      "id": "nextbike-berlin",
      "location": {
        "city": "Berlin",
        "country": "DE",
        "latitude": 52.5087,
        "longitude": 13.3563
      },
      "name": "Nextbike"
    },
    {
      "id": "nextbike-glasgow",
      "location": {
        "city": "Glasgow",
        "country": "GB",
        "latitude": 55.8589,
        "longitude": -4.25549
      },
      "name": "Nextbike"
    },
    {
      "id": "belfastbikes-belfast",
      "location": {
        "city": "Belfast",
        "country": "GB",
        "latitude": 54.5969,
        "longitude": -5.92918
      },
      "name": "BelfastBikes"
    },
    {
      "id": "nextbike-stirling",
      "location": {
        "city": "Stirling",
        "country": "GB",
        "latitude": 56.1165,
        "longitude": -3.9369
      },
      "name": "Nextbike"
    },
    {
      "id": "healthy-ride-pittsburgh-pittsburgh",
      "location": {
        "city": "Pittsburgh",
        "country": "US",
        "latitude": 40.4459,
        "longitude": -79.9945
      },
      "name": "Healthy Ride"
    },
    {
      "id": "nextbike-quickborn",
      "location": {
        "city": "Quickborn",
        "country": "DE",
        "latitude": 53.7333,
        "longitude": 9.90272
      },
      "name": "Nextbike"
    },
    {
      "id": "hudsonbikeshare-hoboken",
      "location": {
        "city": "Hoboken",
        "country": "US",
        "latitude": 40.7447,
        "longitude": -74.0341
      },
      "name": "Hudsonbikeshare"
    },
    {
      "id": "nextbike-bath",
      "location": {
        "city": "Bath",
        "country": "GB",
        "latitude": 51.1742,
        "longitude": -2.50841
      },
      "name": "Nextbike"
    },
    {
      "id": "nextbike-wurzburg",
      "location": {
        "city": "W\u00fcrzburg",
        "country": "DE",
        "latitude": 49.8,
        "longitude": 9.93333
      },
      "name": "Nextbike"
    },
    {
      "id": "nextbike-serfaus",
      "location": {
        "city": "Serfaus",
        "country": "AT",
        "latitude": 47.0387,
        "longitude": 10.6048
      },
      "name": "Nextbike"
    },
    {
      "id": "nextbike-offenbach-am-main",
      "location": {
        "city": "Offenbach am Main",
        "country": "DE",
        "latitude": 50.1093,
        "longitude": 8.73825
      },
      "name": "Nextbike"
    },
    {
      "id": "nextbike-auckland",
      "location": {
        "city": "Auckland",
        "country": "NZ",
        "latitude": -36.8603,
        "longitude": 174.763
      },
      "name": "Nextbike"
    },
    {
      "id": "nextbike-magdeburg",
      "location": {
        "city": "Magdeburg",
        "country": "DE",
        "latitude": 52.1268,
        "longitude": 11.6342
      },
      "name": "Nextbike"
    },
    {
      "id": "nextbike-hamburg",
      "location": {
        "city": "Hamburg",
        "country": "DE",
        "latitude": 53.5506,
        "longitude": 9.99052
      },
      "name": "Nextbike"
    },
    {
      "id": "nextbike-dusseldorf",
      "location": {
        "city": "D\u00fcsseldorf",
        "country": "DE",
        "latitude": 51.2243,
        "longitude": 6.77204
      },
      "name": "Nextbike"
    },
    {
      "id": "nextbike-modling",
      "location": {
        "city": "M\u00f6dling",
        "country": "AT",
        "latitude": 48.1047,
        "longitude": 16.3202
      },
      "name": "Nextbike"
    },
    {
      "id": "nextbike-frankfurt",
      "location": {
        "city": "Frankfurt",
        "country": "DE",
        "latitude": 50.1072,
        "longitude": 8.66375
      },
      "name": "Nextbike"
    },
    {
      "id": "nextbike-sursee",
      "location": {
        "city": "Sursee",
        "country": "CH",
        "latitude": 47.1713,
        "longitude": 8.10877
      },
      "name": "Nextbike"
    },
    {
      "id": "bicincitta-siena",
      "location": {
        "city": "Siena",
        "country": "IT",
        "latitude": 43.3186,
        "longitude": 11.3306
      },
      "name": "Bicincitt\u00e0"
    },
    {
      "id": "bikeu-bra",
      "location": {
        "city": "Bydgoszcz",
        "country": "PL",
        "latitude": 53.12193,
        "longitude": 18.00038
      },
      "name": "Bydgoski rower aglomeracyjny"
    },
    {
      "id": "bicincitta-parco-dei-colli-di-bergamo",
      "location": {
        "city": "Parco dei Colli di Bergamo",
        "country": "IT",
        "latitude": 45.72295637032245,
        "longitude": 9.649230073016383
      },
      "name": "Bicincitt\u00e0"
    },
    {
      "id": "bicincitta-assemini",
      "location": {
        "city": "Assemini",
        "country": "IT",
        "latitude": 39.28956306007679,
        "longitude": 9.006601555294765
      },
      "name": "Bicincitt\u00e0"
    },
    {
      "id": "bicincitta-mantova",
      "location": {
        "city": "Mantova",
        "country": "IT",
        "latitude": 45.15866370764634,
        "longitude": 10.783718973016335
      },
      "name": "Bicincitt\u00e0"
    },
    {
      "id": "bicincitta-tortoli",
      "location": {
        "city": "Tortol\u00ec",
        "country": "IT",
        "latitude": 39.92664489852196,
        "longitude": 9.654953570777934
      },
      "name": "Bicincitt\u00e0"
    },
    {
      "id": "bicincitta-gaeta",
      "location": {
        "city": "Gaeta",
        "country": "IT",
        "latitude": 41.209620965538036,
        "longitude": 13.584335125656139
      },
      "name": "Bicincitt\u00e0"
    },
    {
      "id": "bicincitta-borgarello",
      "location": {
        "city": "Borgarello",
        "country": "IT",
        "latitude": 45.23963753440171,
        "longitude": 9.136150475640875
      },
      "name": "Bicincitt\u00e0"
    },
    {
      "id": "bicincitta-carrara",
      "location": {
        "city": "Carrara",
        "country": "IT",
        "latitude": 44.07731805550891,
        "longitude": 10.097172450401331
      },
      "name": "Bicincitt\u00e0"
    },
    {
      "id": "bicincitta-montecatini-terme",
      "location": {
        "city": "Montecatini Terme",
        "country": "IT",
        "latitude": 43.88362791665083,
        "longitude": 10.764385656591799
      },
      "name": "Bicincitt\u00e0"
    },
    {
      "id": "bicincitta-cernobbio",
      "location": {
        "city": "Cernobbio",
        "country": "IT",
        "latitude": 45.83745947067494,
        "longitude": 9.073591857810925
      },
      "name": "Bicincitt\u00e0"
    },
    {
      "id": "cyclopolis-nafplio",
      "location": {
        "city": "Maroussi",
        "country": "GR",
        "latitude": 37.5639397319,
        "longitude": 22.8093402872
      },
      "name": "Cyclopolis"
    },
    {
      "id": "cyclopolis-maroussi",
      "location": {
        "city": "Maroussi",
        "country": "GR",
        "latitude": 38.0568722388,
        "longitude": 23.8083299536
      },
      "name": "Cyclopolis"
    },
    {
      "id": "cyclopolis-aigialeia",
      "location": {
        "city": "Maroussi",
        "country": "GR",
        "latitude": 38.2511101325,
        "longitude": 22.0821570196
      },
      "name": "Cyclopolis"
    },
    {
      "id": "cyclopolis-marathon",
      "location": {
        "city": "Marathon",
        "country": "GR",
        "latitude": 38.0855680022,
        "longitude": 23.9776389963
      },
      "name": "Cyclopolis"
    },
    {
      "id": "cyclopolis-arxaiaolympia",
      "location": {
        "city": "\u0391rxaia Olympia",
        "country": "GR",
        "latitude": 37.6419700934,
        "longitude": 21.6247265179
      },
      "name": "Cyclopolis"
    },
    {
      "id": "cyclopolis-neasmyrni",
      "location": {
        "city": "\u039dea Smyrni",
        "country": "GR",
        "latitude": 37.9381,
        "longitude": 23.7126
      },
      "name": "Cyclopolis"
    },
    {
      "id": "cyclopolis-moschatotavros",
      "location": {
        "city": "\u039coschato-Tavros",
        "country": "GR",
        "latitude": 37.9538991434,
        "longitude": 23.6824746661
      },
      "name": "Cyclopolis"
    },
    {
      "id": "cyclopolis-kiato",
      "location": {
        "city": "K\u03b9ato",
        "country": "GR",
        "latitude": 38.0132674508,
        "longitude": 22.7493819902
      },
      "name": "Cyclopolis"
    },
    {
      "id": "cyclopolis-rhodes",
      "location": {
        "city": "Rhodes",
        "country": "GR",
        "latitude": 36.4509118,
        "longitude": 28.2246966
      },
      "name": "Cyclopolis"
    },
    {
      "id": "cyclopolis-limnos",
      "location": {
        "city": "Limnos",
        "country": "GR",
        "latitude": 39.8747861,
        "longitude": 25.0586722
      },
      "name": "Cyclopolis"
    },
    {
      "id": "cyclopolis-florina",
      "location": {
        "city": "Florina",
        "country": "GR",
        "latitude": 40.8016111,
        "longitude": 21.4245222
      },
      "name": "Cyclopolis"
    },
    {
      "id": "elpaso",
      "location": {
        "city": "El Paso, TX",
        "country": "US",
        "latitude": 31.76148,
        "longitude": -106.48507
      },
      "name": "El Paso B-cycle"
    },
    {
      "id": "dublinbikes",
      "location": {
        "city": "Dublin",
        "country": "IE",
        "latitude": 53.3498053,
        "longitude": -6.2603097
      },
      "name": "dublinbikes"
    },
    {
      "id": "battlecreek",
      "location": {
        "city": "Battle Creek, MI",
        "country": "US",
        "latitude": 42.32423,
        "longitude": -85.18833
      },
      "name": "Battle Creek B-cycle"
    },
    {
      "id": "linkdayton",
      "location": {
        "city": "Dayton, OH",
        "country": "US",
        "latitude": 39.75626,
        "longitude": -84.21119
      },
      "name": "Link"
    },
    {
      "id": "indego",
      "location": {
        "city": "Philadelphia, PA",
        "country": "US",
        "latitude": 39.95378,
        "longitude": -75.16374
      },
      "name": "Indego"
    },
    {
      "id": "bicimia",
      "location": {
        "city": "Brescia",
        "country": "IT",
        "latitude": 45.5398382,
        "longitude": 10.2229562
      },
      "name": "BiciMia"
    },
    {
      "id": "punpunbikeshare",
      "location": {
        "city": "Bangkok",
        "country": "TH",
        "latitude": 13.75,
        "longitude": 100.516667
      },
      "name": "Pun Pun Bike Share"
    },
    {
      "id": "c-velo",
      "location": {
        "city": "Clermont-Ferrand",
        "country": "FR",
        "latitude": 45.770958,
        "longitude": 3.073871
      },
      "name": "C.V\u00e9lo"
    },
    {
      "id": "velivert",
      "location": {
        "city": "Saint-\u00c9tienne",
        "country": "FR",
        "latitude": 45.396667,
        "longitude": 4.290833
      },
      "name": "V\u00e9liVert"
    },
    {
      "id": "velopop",
      "location": {
        "city": "Avignon",
        "country": "FR",
        "latitude": 43.943689,
        "longitude": 4.805833
      },
      "name": "V\u00e9lopop"
    },
    {
      "id": "batumvelo",
      "location": {
        "city": "Batumi",
        "country": "GE",
        "latitude": 41.660906,
        "longitude": 41.678835
      },
      "name": "Batumvelo"
    },
    {
      "id": "libelo",
      "location": {
        "city": "Valence",
        "country": "FR",
        "latitude": 44.922726,
        "longitude": 4.905634
      },
      "name": "Lib\u00e9lo"
    },
    {
      "id": "clujbike",
      "location": {
        "city": "Cluj-Napoca",
        "country": "RO",
        "latitude": 46.775,
        "longitude": 23.5975
      },
      "name": "Cluj Bike"
    },
    {
      "id": "adcb-bikeshare",
      "location": {
        "city": "Abu Dhabi",
        "country": "AE",
        "latitude": 24.450278,
        "longitude": 54.39
      },
      "name": "ADCB Bikeshare"
    },
    {
      "id": "movete",
      "location": {
        "city": "Montevideo",
        "country": "UY",
        "latitude": -34.9011127,
        "longitude": -56.164531399
      },
      "name": "Movete"
    },
    {
      "id": "mimuovofe",
      "location": {
        "city": "Ferrara",
        "country": "IT",
        "latitude": 44.8350382,
        "longitude": 11.6240562
      },
      "name": "MiMuovoFe"
    },
    {
      "id": "bicialtea",
      "location": {
        "city": "Altea",
        "country": "ES",
        "latitude": 38.6029075,
        "longitude": -0.0450666
      },
      "name": "Bicialtea"
    },
    {
      "id": "bicidorm",
      "location": {
        "city": "Benidorm",
        "country": "ES",
        "latitude": 38.5410566,
        "longitude": -0.1224937
      },
      "name": "Bicidorm"
    },
    {
      "id": "saforbici",
      "location": {
        "city": "Gand\u00eda",
        "country": "ES",
        "latitude": 38.968032,
        "longitude": -0.1844671
      },
      "name": "SaforBici"
    },
    {
      "id": "gbici",
      "location": {
        "city": "Getafe",
        "country": "ES",
        "latitude": 40.3082504,
        "longitude": -3.7323934
      },
      "name": "Gbici"
    },
    {
      "id": "muybici",
      "location": {
        "city": "Murcia",
        "country": "ES",
        "latitude": 37.9922399,
        "longitude": -1.1306544
      },
      "name": "MuyBici"
    },
    {
      "id": "ponfemobi",
      "location": {
        "city": "Ponferrada",
        "country": "ES",
        "latitude": 42.5499958,
        "longitude": -6.598259000000001
      },
      "name": "PonfeMobi"
    },
    {
      "id": "cork",
      "location": {
        "city": "Cork",
        "country": "IE",
        "latitude": 51.893604,
        "longitude": -8.494174
      },
      "name": "Coca-Cola Zero\u00ae Bikes"
    },
    {
      "id": "galway",
      "location": {
        "city": "Galway",
        "country": "IE",
        "latitude": 53.2783491544,
        "longitude": -9.05069143207
      },
      "name": "Coca-Cola Zero\u00ae Bikes"
    },
    {
      "id": "youbike-new-taipei",
      "location": {
        "city": "\u65b0\u5317\u5e02 New Taipei",
        "country": "TW",
        "latitude": 25.0169826,
        "longitude": 121.4627868
      },
      "name": "YouBike"
    },
    {
      "id": "youbike-taipei",
      "location": {
        "city": "\u53f0\u5317\u5e02 Taipei City",
        "country": "TW",
        "latitude": 25.0329636,
        "longitude": 121.5654268
      },
      "name": "YouBike"
    },
    {
      "id": "youbike-taoyuan",
      "location": {
        "city": "\u6843\u5712\u5e02 Taoyuan City",
        "country": "TW",
        "latitude": 24.9936281,
        "longitude": 121.3009798
      },
      "name": "YouBike"
    },
    {
      "id": "youbike-taichung",
      "location": {
        "city": "\u81fa\u4e2d\u5e02 Taichung City",
        "country": "TW",
        "latitude": 24.1477358,
        "longitude": 120.6736482
      },
      "name": "YouBike"
    },
    {
      "id": "youbike-changhua",
      "location": {
        "city": "\u5f70\u5316 Changhua County",
        "country": "TW",
        "latitude": 24.0517963,
        "longitude": 120.5161352
      },
      "name": "YouBike"
    },
    {
      "id": "cycle-hire-slough",
      "location": {
        "city": "Slough",
        "country": "GB",
        "latitude": 51.51135,
        "longitude": -0.591562
      },
      "name": "Cycle Hire"
    },
    {
      "id": "mibicitubici",
      "location": {
        "city": "Rosario",
        "country": "AR",
        "latitude": -32.95,
        "longitude": -60.65
      },
      "name": "Mi bici tu bici"
    },
    {
      "id": "citybikes-helsinki",
      "location": {
        "city": "Helsinki",
        "country": "FI",
        "latitude": 60.16985569999999,
        "longitude": 24.938379
      },
      "name": "City bikes"
    },
    {
      "id": "easybike-glyfada",
      "location": {
        "city": "Glyfada",
        "country": "GR",
        "latitude": 37.8715809825,
        "longitude": 23.7355544376
      },
      "name": "EasyBike"
    },
    {
      "id": "easybike-igoumenitsa",
      "location": {
        "city": "Igoumenitsa",
        "country": "GR",
        "latitude": 39.5005770633,
        "longitude": 20.2635206985
      },
      "name": "EasyBike"
    },
    {
      "id": "easybike-kinouria",
      "location": {
        "city": "Kinouria",
        "country": "GR",
        "latitude": 37.1476704305,
        "longitude": 22.8933729935
      },
      "name": "EasyBike"
    },
    {
      "id": "easybike-patra",
      "location": {
        "city": "Patra",
        "country": "GR",
        "latitude": 38.2410966371,
        "longitude": 21.7259683418
      },
      "name": "EasyBike"
    },
    {
      "id": "easybike-rethymno",
      "location": {
        "city": "Rethymno",
        "country": "GR",
        "latitude": 35.3667571777,
        "longitude": 24.4832845736
      },
      "name": "EasyBike"
    },
    {
      "id": "easybike-samos",
      "location": {
        "city": "Samos",
        "country": "GR",
        "latitude": 37.754065919,
        "longitude": 26.9787850189
      },
      "name": "EasyBike"
    },
    {
      "id": "lundahoj",
      "location": {
        "city": "Lund",
        "country": "SE",
        "latitude": 55.7046601,
        "longitude": 13.1910073
      },
      "name": "Lundahoj"
    },
    {
      "id": "malmobybike",
      "location": {
        "city": "Malm\u00f6",
        "country": "SE",
        "latitude": 55.605,
        "longitude": 13.0038
      },
      "name": "Malm\u00f6 by bike"
    },
    {
      "id": "bicimad",
      "location": {
        "city": "Madrid",
        "country": "ES",
        "latitude": 40.4168,
        "longitude": -3.7038
      },
      "name": "BiciMAD"
    },
    {
      "id": "santander-cycles",
      "location": {
        "city": "London",
        "country": "GB",
        "latitude": 51.51121389999999,
        "longitude": -0.1198244
      },
      "name": "Santander Cycles"
    },
    {
      "id": "nu-connect",
      "location": {
        "city": "Utrecht",
        "country": "NL",
        "latitude": 52.117,
        "longitude": 5.067
      },
      "name": "Nu-Connect"
    },
    {
      "id": "bysykkelen",
      "location": {
        "city": "Stavanger",
        "country": "NO",
        "latitude": 58.969975,
        "longitude": 5.733107
      },
      "name": "Bysykkelen"
    },
    {
      "id": "citycycle",
      "location": {
        "city": "Brisbane",
        "country": "AU",
        "latitude": -27.4710107,
        "longitude": 153.0234489
      },
      "name": "CityCycle"
    },
    {
      "id": "baksi-antalya",
      "location": {
        "city": "Antalya",
        "country": "TR",
        "latitude": 36.862048,
        "longitude": 30.638866
      },
      "name": "Baksi"
    },
    {
      "id": "baksi-bisim",
      "location": {
        "city": "Izmir",
        "country": "TR",
        "latitude": 38.4134047464,
        "longitude": 27.0325753524
      },
      "name": "Baksi"
    },
    {
      "id": "baksi-istanbul",
      "location": {
        "city": "Istanbul",
        "country": "TR",
        "latitude": 40.9696887925,
        "longitude": 29.0475373717
      },
      "name": "Isbike"
    },
    {
      "id": "baksi-kobis",
      "location": {
        "city": "Kocaeli",
        "country": "TR",
        "latitude": 40.7674733342,
        "longitude": 29.9755885985
      },
      "name": "Baksi"
    },
    {
      "id": "skybike-west-palm-beach-west-palm-beach-florida",
      "location": {
        "city": "West Palm Beach Florida",
        "country": "US",
        "latitude": 26.7125,
        "longitude": -80.0821
      },
      "name": "Skybike"
    },
    {
      "id": "limerick",
      "location": {
        "city": "Limerick",
        "country": "IE",
        "latitude": 52.668746,
        "longitude": -8.627809
      },
      "name": "Coca-Cola Zero\u00ae Bikes"
    },
    {
      "id": "bicincitta-pizzighettone-formigara",
      "location": {
        "city": "Pizzighettone e Formigara",
        "country": "IT",
        "latitude": 45.186748819167434,
        "longitude": 9.778087948479424
      },
      "name": "Bicincitt\u00e0"
    },
    {
      "id": "meglio-in-bici",
      "location": {
        "city": "Cernusco sul Naviglio - Pioltello - Carugate",
        "country": "IT",
        "latitude": 45.520541,
        "longitude": 9.341984
      },
      "name": "Meglio in Bici"
    },
    {
      "id": "mobibikes",
      "location": {
        "city": "Vancouver",
        "country": "CA",
        "latitude": 49.2827,
        "longitude": -123.1207
      },
      "name": "Mobi"
    },
    {
      "id": "curtin-bike-share",
      "location": {
        "city": "Curtin University, Perth, WA",
        "country": "AU",
        "latitude": -32.0034172153127,
        "longitude": 115.89431270956993
      },
      "name": "Curtin Bike Share"
    },
    {
      "id": "monash-bikeshare",
      "location": {
        "city": "Melbourne, AU",
        "country": "AU",
        "latitude": -37.91238410208696,
        "longitude": 145.1362281292677
      },
      "name": "Monash BikeShare"
    },
    {
      "id": "arborbike",
      "location": {
        "city": "Ann Arbor, MI",
        "country": "US",
        "latitude": 42.27853,
        "longitude": -83.74536
      },
      "name": "ArborBike"
    },
    {
      "id": "bixi-toronto",
      "location": {
        "city": "Toronto, ON",
        "country": "CA",
        "latitude": 43.653226,
        "longitude": -79.3831843
      },
      "name": "Bike Share Toronto"
    },
    {
      "id": "sobi-hamilton",
      "location": {
        "city": "Hamilton, ON",
        "country": "CA",
        "latitude": 43.25643601915583,
        "longitude": -79.86929655075073
      },
      "name": "SoBi"
    },
    {
      "id": "velogo",
      "location": {
        "city": "Ottawa, ON",
        "country": "CA",
        "latitude": 45.4285325522342,
        "longitude": -75.6970576741095
      },
      "name": "VeloGO"
    },
    {
      "id": "biketown",
      "location": {
        "city": "Portland, OR",
        "country": "US",
        "latitude": 45.52175423291714,
        "longitude": -122.68107935786247
      },
      "name": "BIKETOWN"
    },
    {
      "id": "britebikes",
      "location": {
        "city": "San Ramon, CA",
        "country": "US",
        "latitude": 37.759444753878,
        "longitude": -121.955134881881
      },
      "name": "BRiteBikes"
    },
    {
      "id": "boise-greenbike",
      "location": {
        "city": "Boise, ID",
        "country": "US",
        "latitude": 43.6153060610528,
        "longitude": -116.201761349309
      },
      "name": "Boise GreenBike"
    },
    {
      "id": "breeze-bike-share",
      "location": {
        "city": "Santa Monica, CA",
        "country": "US",
        "latitude": 34.01780925008178,
        "longitude": -118.4965717792511
      },
      "name": "Breeze Bike Share"
    },
    {
      "id": "reddy-bike-share",
      "location": {
        "city": "Buffalo, NY",
        "country": "US",
        "latitude": 42.89373841865211,
        "longitude": -78.8718044757843
      },
      "name": "Reddy Bike Share"
    },
    {
      "id": "capital-bikeshare",
      "location": {
        "city": "Washington, DC",
        "country": "US",
        "latitude": 38.8967584,
        "longitude": -77.03701629999999
      },
      "name": "Capital BikeShare"
    },
    {
      "id": "citi-bike-nyc",
      "location": {
        "city": "New York, NY",
        "country": "US",
        "latitude": 40.7143528,
        "longitude": -74.00597309999999
      },
      "name": "Citi Bike"
    },
    {
      "id": "cincy-red-bike",
      "location": {
        "city": "Cincinnati, OH",
        "country": "US",
        "latitude": 39.10138,
        "longitude": -84.51217
      },
      "name": "Cincy Red Bike"
    },
    {
      "id": "coast-bike-share",
      "location": {
        "city": "Tampa, FL",
        "country": "US",
        "latitude": 27.9627193250593,
        "longitude": -82.438056400783
      },
      "name": "Coast Bike Share"
    },
    {
      "id": "cogo",
      "location": {
        "city": "Columbus, OH",
        "country": "US",
        "latitude": 39.983333,
        "longitude": -82.983333
      },
      "name": "CoGo"
    },
    {
      "id": "divvy",
      "location": {
        "city": "Chicago, IL",
        "country": "US",
        "latitude": 41.8781136,
        "longitude": -87.6297982
      },
      "name": "Divvy"
    },
    {
      "id": "grid-bike-share",
      "location": {
        "city": "Phoenix, AZ",
        "country": "US",
        "latitude": 33.4591031356657,
        "longitude": -112.074010667085
      },
      "name": "Grid Bike Share"
    },
    {
      "id": "hubway",
      "location": {
        "city": "Boston, MA",
        "country": "US",
        "latitude": 42.3584308,
        "longitude": -71.0597732
      },
      "name": "Hubway"
    },
    {
      "id": "juice-bike-share",
      "location": {
        "city": "Orlando, FL",
        "country": "US",
        "latitude": 28.536663311743688,
        "longitude": -81.37922197580338
      },
      "name": "Juice"
    },
    {
      "id": "metro-bike-share",
      "location": {
        "city": "Los Angeles, CA",
        "country": "US",
        "latitude": 34.04855,
        "longitude": -118.25905
      },
      "name": "Metro Bike Share"
    },
    {
      "id": "mountain-rides-bike-share",
      "location": {
        "city": "Ketchum / Sun Valley, ID",
        "country": "US",
        "latitude": 43.5194695168239,
        "longitude": -114.317415758737
      },
      "name": "Mountain Rides Bike Share"
    },
    {
      "id": "nice-ride",
      "location": {
        "city": "Minneapolis, MN",
        "country": "US",
        "latitude": 44.983334,
        "longitude": -93.26666999999999
      },
      "name": "Nice Ride"
    },
    {
      "id": "share-a-bull-bikes",
      "location": {
        "city": "University of South Florida, FL",
        "country": "US",
        "latitude": 28.060548696070995,
        "longitude": -82.4076198041439
      },
      "name": "Share-a-Bull Bikes"
    },
    {
      "id": "sobi-long-beach",
      "location": {
        "city": "Long Beach, NY",
        "country": "US",
        "latitude": 40.5833058203002,
        "longitude": -73.6482682794673
      },
      "name": "SoBi"
    },
    {
      "id": "topeka-metro-bikes",
      "location": {
        "city": "Topeka, KS",
        "country": "US",
        "latitude": 39.0337646098385,
        "longitude": -95.7027213202284
      },
      "name": "Topeka Metro Bikes"
    },
    {
      "id": "ubike",
      "location": {
        "city": "University of Virginia, VA",
        "country": "US",
        "latitude": 38.0357625021372,
        "longitude": -78.5072994363201
      },
      "name": "UBike"
    },
    {
      "id": "bici-ferrol-terra",
      "location": {
        "city": "Ferrol - Nar\u00f3n",
        "country": "ES",
        "latitude": 43.4896,
        "longitude": -8.2193
      },
      "name": "BiciFerrolTerra"
    },
    {
      "id": "rivibike",
      "location": {
        "city": "S\u00e3o Louren\u00e7o",
        "country": "BR",
        "latitude": -22.1124,
        "longitude": -45.028
      },
      "name": "RiviBike"
    },
    {
      "id": "bilbon-bizi",
      "location": {
        "city": "Bilbao",
        "country": "ES",
        "latitude": 43.2627707,
        "longitude": -2.9371822
      },
      "name": "Bilbon Bizi"
    },
    {
      "id": "relay-atlanta",
      "location": {
        "city": "Atlanta, GA",
        "country": "US",
        "latitude": 33.7627941119619,
        "longitude": -84.38727110624313
      },
      "name": "Relay Bike Share"
    },
    {
      "id": "bicincitta-lausanne-campus-morges",
      "location": {
        "city": "Lausanne - Morges - Campus",
        "country": "CH",
        "latitude": 46.5196535,
        "longitude": 6.6322734
      },
      "name": "Bicincitt\u00e0"
    },
    {
      "id": "bicincitta-mezzolombardo",
      "location": {
        "city": "Mezzolombardo",
        "country": "IT",
        "latitude": 46.21400260000001,
        "longitude": 11.0967867
      },
      "name": "Bicincitt\u00e0"
    },
    {
      "id": "bicincitta-livorno",
      "location": {
        "city": "Livorno",
        "country": "IT",
        "latitude": 43.548473,
        "longitude": 10.3105674
      },
      "name": "Bicincitt\u00e0"
    },
    {
      "id": "bicincitta-scafati",
      "location": {
        "city": "Scafati",
        "country": "IT",
        "latitude": 40.7620174,
        "longitude": 14.5363969
      },
      "name": "Bicincitt\u00e0"
    },
    {
      "id": "bicincitta-rivarolo-canavese",
      "location": {
        "city": "Rivarolo Canavese",
        "country": "IT",
        "latitude": 45.306633,
        "longitude": 7.723242
      },
      "name": "Bicincitt\u00e0"
    },
    {
      "id": "bicincitta-mezzocorona",
      "location": {
        "city": "Mezzocorona",
        "country": "IT",
        "latitude": 46.2339047,
        "longitude": 11.1277461
      },
      "name": "Bicincitt\u00e0"
    },
    {
      "id": "bicincitta-forli",
      "location": {
        "city": "Forl\u00ec",
        "country": "IT",
        "latitude": 44.2227398,
        "longitude": 12.0407312
      },
      "name": "Bicincitt\u00e0"
    },
    {
      "id": "bicincitta-monserrato",
      "location": {
        "city": "Monserrato",
        "country": "IT",
        "latitude": 39.2560191,
        "longitude": 9.1453579
      },
      "name": "Bicincitt\u00e0"
    },
    {
      "id": "bicincitta-san-lazzaro-di-savena",
      "location": {
        "city": "San Lazzaro di Savena",
        "country": "IT",
        "latitude": 44.4702725,
        "longitude": 11.409399
      },
      "name": "Bicincitt\u00e0"
    },
    {
      "id": "bicincitta-parco-molentargius-saline",
      "location": {
        "city": "Parco Naturale Molentargius - Saline",
        "country": "IT",
        "latitude": 39.2052545,
        "longitude": 9.146761099999999
      },
      "name": "Bicincitt\u00e0"
    },
    {
      "id": "bicincitta-castel-guelfo-the-style-outlets",
      "location": {
        "city": "Castel Guelfo di Bologna",
        "country": "IT",
        "latitude": 44.4328527,
        "longitude": 11.6750857
      },
      "name": "Bicincitt\u00e0"
    },
    {
      "id": "bicincitta-san-michele-alladige",
      "location": {
        "city": "San Michele All'adige",
        "country": "IT",
        "latitude": 46.1878653,
        "longitude": 11.1330423
      },
      "name": "Bicincitt\u00e0"
    },
    {
      "id": "bicincitta-gallipoli",
      "location": {
        "city": "Gallipoli",
        "country": "IT",
        "latitude": 40.0558554,
        "longitude": 17.9925085
      },
      "name": "Bicincitt\u00e0"
    },
    {
      "id": "bicincitta-agglo-fribourg",
      "location": {
        "city": "Fribourg",
        "country": "CH",
        "latitude": 46.8064773,
        "longitude": 7.161971899999999
      },
      "name": "Bicincitt\u00e0"
    },
    {
      "id": "bicincitta-modena",
      "location": {
        "city": "Modena",
        "country": "IT",
        "latitude": 44.647128,
        "longitude": 10.9252269
      },
      "name": "Bicincitt\u00e0"
    },
    {
      "id": "bicincitta-bulle",
      "location": {
        "city": "Bulle",
        "country": "CH",
        "latitude": 46.6154512,
        "longitude": 7.057726799999999
      },
      "name": "Bicincitt\u00e0"
    },
    {
      "id": "bicincitta-riviera",
      "location": {
        "city": "Distretto della Riviera-Pays-d'Enhaut",
        "country": "CH",
        "latitude": 46.4628333,
        "longitude": 6.8419192
      },
      "name": "Bicincitt\u00e0"
    },
    {
      "id": "bicincitta-brancaleone",
      "location": {
        "city": "Brancaleone",
        "country": "IT",
        "latitude": 37.9679084,
        "longitude": 16.0757749
      },
      "name": "Bicincitt\u00e0"
    },
    {
      "id": "bicincitta-scandiano",
      "location": {
        "city": "Scandiano",
        "country": "IT",
        "latitude": 44.5982342,
        "longitude": 10.6909273
      },
      "name": "Bicincitt\u00e0"
    },
    {
      "id": "bicincitta-tivat",
      "location": {
        "city": "TV",
        "country": "ME",
        "latitude": 42.4349809,
        "longitude": 18.7066398
      },
      "name": "Bicincitt\u00e0"
    },
    {
      "id": "bicincitta-elmas",
      "location": {
        "city": "Elmas",
        "country": "IT",
        "latitude": 39.2634329,
        "longitude": 9.0515805
      },
      "name": "Bicincitt\u00e0"
    },
    {
      "id": "bicincitta-vicolungo-the-style-outlets",
      "location": {
        "city": "Vicolungo",
        "country": "IT",
        "latitude": 45.47167229999999,
        "longitude": 8.4633922
      },
      "name": "Bicincitt\u00e0"
    },
    {
      "id": "bicincitta-acquaviva-delle-fonti",
      "location": {
        "city": "Acquaviva delle fonti",
        "country": "IT",
        "latitude": 40.9303721,
        "longitude": 16.8414374
      },
      "name": "Bicincitt\u00e0"
    },
    {
      "id": "bicincitta-acquarica-del-capo",
      "location": {
        "city": "Acquarica del Capo",
        "country": "IT",
        "latitude": 39.9144573,
        "longitude": 18.2450324
      },
      "name": "Bicincitt\u00e0"
    },
    {
      "id": "bicincitta-porto-torres",
      "location": {
        "city": "Porto Torres",
        "country": "IT",
        "latitude": 40.8333682,
        "longitude": 8.402292899999999
      },
      "name": "Bicincitt\u00e0"
    },
    {
      "id": "bicincitta-cisterna-di-latina",
      "location": {
        "city": "Cisterna di Latina",
        "country": "IT",
        "latitude": 41.5754029,
        "longitude": 12.8284772
      },
      "name": "Bicincitt\u00e0"
    },
    {
      "id": "bicincitta-casaletto-spartano",
      "location": {
        "city": "Casaletto Spartano",
        "country": "IT",
        "latitude": 40.1532801,
        "longitude": 15.6211479
      },
      "name": "Bicincitt\u00e0"
    },
    {
      "id": "bicincitta-selargius",
      "location": {
        "city": "Selargius",
        "country": "IT",
        "latitude": 39.2596768,
        "longitude": 9.1629372
      },
      "name": "Bicincitt\u00e0"
    },
    {
      "id": "bicincitta-yverdon-les-bains",
      "location": {
        "city": "Yverdon-les-Bains",
        "country": "CH",
        "latitude": 46.7784736,
        "longitude": 6.641183
      },
      "name": "Bicincitt\u00e0"
    },
    {
      "id": "bicincitta-monza",
      "location": {
        "city": "Monza",
        "country": "IT",
        "latitude": 45.5845001,
        "longitude": 9.2744485
      },
      "name": "Bicincitt\u00e0"
    },
    {
      "id": "bicincitta-morigerati",
      "location": {
        "city": "Morigerati",
        "country": "IT",
        "latitude": 40.1422031,
        "longitude": 15.5298525
      },
      "name": "Bicincitt\u00e0"
    },
    {
      "id": "bicincitta-la-cote",
      "location": {
        "city": "Nyon",
        "country": "CH",
        "latitude": 46.3832683,
        "longitude": 6.2347852
      },
      "name": "Bicincitt\u00e0"
    },
    {
      "id": "bicincitta-chablais",
      "location": {
        "city": "Monthey - Aigle",
        "country": "CH",
        "latitude": 46.2521873,
        "longitude": 6.9469598
      },
      "name": "Bicincitt\u00e0"
    },
    {
      "id": "bicincitta-ente-parco-del-circeo",
      "location": {
        "city": "Parco Nazionale del Circeo",
        "country": "IT",
        "latitude": 41.3151015,
        "longitude": 13.0330782
      },
      "name": "Bicincitt\u00e0"
    },
    {
      "id": "bicincitta-cesena",
      "location": {
        "city": "Cesena",
        "country": "IT",
        "latitude": 44.1396438,
        "longitude": 12.2464292
      },
      "name": "Bicincitt\u00e0"
    },
    {
      "id": "bicincitta-san-donato-milanese",
      "location": {
        "city": "San Donato Milanese",
        "country": "IT",
        "latitude": 45.4092402,
        "longitude": 9.2684867
      },
      "name": "Bicincitt\u00e0"
    },
    {
      "id": "bicincitta-lugano-paradiso",
      "location": {
        "city": "Paradiso",
        "country": "CH",
        "latitude": 45.9907174,
        "longitude": 8.945261799999999
      },
      "name": "Bicincitt\u00e0"
    },
    {
      "id": "bicincitta-alghero",
      "location": {
        "city": "Alghero",
        "country": "IT",
        "latitude": 40.5579517,
        "longitude": 8.319294900000001
      },
      "name": "Bicincitt\u00e0"
    },
    {
      "id": "bicincitta-san-giovanni-in-persiceto",
      "location": {
        "city": "San Giovanni in Persiceto",
        "country": "IT",
        "latitude": 44.6405433,
        "longitude": 11.1893053
      },
      "name": "Bicincitt\u00e0"
    },
    {
      "id": "bicincitta-treviglio",
      "location": {
        "city": "Treviglio",
        "country": "IT",
        "latitude": 45.5293372,
        "longitude": 9.591435899999999
      },
      "name": "Bicincitt\u00e0"
    },
    {
      "id": "bicincitta-ente-parco-san-rossore",
      "location": {
        "city": "Parco naturale Migliarino San Rossore Massaciuccoli",
        "country": "IT",
        "latitude": 43.723826,
        "longitude": 10.339509
      },
      "name": "Bicincitt\u00e0"
    },
    {
      "id": "bicincitta-lavis",
      "location": {
        "city": "Lavis",
        "country": "IT",
        "latitude": 46.1408423,
        "longitude": 11.1124935
      },
      "name": "Bicincitt\u00e0"
    },
    {
      "id": "bicincitta-ente-parco-di-montemarcello-magra",
      "location": {
        "city": "Ente Parco Montemarcello Magra",
        "country": "IT",
        "latitude": 44.1143897,
        "longitude": 9.9635986
      },
      "name": "Bicincitt\u00e0"
    },
    {
      "id": "bicincitta-les-lacs-romont",
      "location": {
        "city": "Murten",
        "country": "CH",
        "latitude": 46.92922110000001,
        "longitude": 7.120184
      },
      "name": "Bicincitt\u00e0"
    },
    {
      "id": "wrm-wroclaw",
      "location": {
        "city": "Wroc\u0142aw",
        "country": "PL",
        "latitude": 51.1097,
        "longitude": 17.0485
      },
      "name": "WRM"
    },
    {
      "id": "prm-poznan",
      "location": {
        "city": "Pozna\u0144",
        "country": "PL",
        "latitude": 52.4077,
        "longitude": 16.9323
      },
      "name": "PRM"
    },
    {
      "id": "opole-bike-opole",
      "location": {
        "city": "Opole",
        "country": "PL",
        "latitude": 50.6633,
        "longitude": 17.9239
      },
      "name": "Opole Bike"
    },
    {
      "id": "veturilo-warszawa",
      "location": {
        "city": "Warszawa",
        "country": "PL",
        "latitude": 52.2265,
        "longitude": 21.0127
      },
      "name": "VETURILO"
    },
    {
      "id": "biker-bialystok-bialystok",
      "location": {
        "city": "Bia\u0142ystok",
        "country": "PL",
        "latitude": 53.1342,
        "longitude": 23.1485
      },
      "name": "BIKER Bia\u0142ystok"
    },
    {
      "id": "krm-konstancinski-konstancin-jeziorna",
      "location": {
        "city": "Konstancin Jeziorna",
        "country": "PL",
        "latitude": 52.0759,
        "longitude": 21.1161
      },
      "name": "KRM Konstanci\u0144ski"
    },
    {
      "id": "stalowa-wola-miasto-rowerow-stalowa-wola",
      "location": {
        "city": "Stalowa Wola",
        "country": "PL",
        "latitude": 50.57,
        "longitude": 22.0626
      },
      "name": "Stalowa Wola miasto rower\u00f3w"
    },
    {
      "id": "system-legnicki-rower-miejski-slrm-legnica",
      "location": {
        "city": "Legnica",
        "country": "PL",
        "latitude": 51.2059,
        "longitude": 16.1667
      },
      "name": "System Legnicki Rower Miejski (SLRM)"
    },
    {
      "id": "veturilo-stacje-sponsorskie-nextbike-veturilo",
      "location": {
        "city": "Warszawa",
        "country": "PL",
        "latitude": 52.2265,
        "longitude": 21.0127
      },
      "name": "Stacje Sponsorskie Nextbike Veturilo"
    },
    {
      "id": "radomski-rower-miejski-stacje-sponsorskie-radom",
      "location": {
        "city": "Radom",
        "country": "PL",
        "latitude": 51.3994,
        "longitude": 21.1655
      },
      "name": "Stacje Sponsorskie Radom"
    },
    {
      "id": "system-rowerow-miejskich-w-pszczynie-pszczyna",
      "location": {
        "city": "Pszczyna",
        "country": "PL",
        "latitude": 49.9757,
        "longitude": 18.9463
      },
      "name": "System Rower\u00f3w Miejskich w Pszczynie"
    },
    {
      "id": "kaliski-rower-miejski-kalisz",
      "location": {
        "city": "Kalisz",
        "country": "PL",
        "latitude": 51.7608,
        "longitude": 18.0746
      },
      "name": "Kaliski Rower Miejski"
    },
    {
      "id": "bike-chattanooga",
      "location": {
        "city": "Chattanooga, TN",
        "country": "US",
        "latitude": 35.0456297,
        "longitude": -85.3096801
      },
      "name": "Bike Chattanooga"
    },
    {
      "id": "norisbike-nurnberg",
      "location": {
        "city": "N\u00fcrnberg",
        "country": "DE",
        "latitude": 49.4479,
        "longitude": 11.0814
      },
      "name": "NorisBike"
    },
    {
      "id": "burgenland-neusiedler-see",
      "location": {
        "city": "Neusiedler See",
        "country": "AT",
        "latitude": 47.839,
        "longitude": 16.761
      },
      "name": "Burgenland"
    },
    {
      "id": "facherrad-karlsruhe",
      "location": {
        "city": "Karlsruhe",
        "country": "DE",
        "latitude": 49.0102,
        "longitude": 8.41827
      },
      "name": "F\u00e4cherrad"
    },
    {
      "id": "sz-bike-dresden",
      "location": {
        "city": "Dresden",
        "country": "DE",
        "latitude": 51.0535,
        "longitude": 13.7387
      },
      "name": "sz-bike"
    },
    {
      "id": "nextbike-stpolten",
      "location": {
        "city": "St.P\u00f6lten",
        "country": "AT",
        "latitude": 48.2058,
        "longitude": 15.6232
      },
      "name": "Nextbike"
    },
    {
      "id": "metropolradruhr-dortmund",
      "location": {
        "city": "Dortmund",
        "country": "DE",
        "latitude": 51.5141,
        "longitude": 7.46255
      },
      "name": "metropolradruhr"
    },
    {
      "id": "sixt-riga",
      "location": {
        "city": "R\u012bga",
        "country": "LV",
        "latitude": 56.9453,
        "longitude": 24.1033
      },
      "name": "SiXT"
    },
    {
      "id": "metropolradruhr-essen",
      "location": {
        "city": "Essen",
        "country": "DE",
        "latitude": 51.4425,
        "longitude": 7.02301
      },
      "name": "metropolradruhr"
    },
    {
      "id": "metropolradruhr-hamm",
      "location": {
        "city": "Hamm",
        "country": "DE",
        "latitude": 51.6775,
        "longitude": 7.84836
      },
      "name": "metropolradruhr"
    },
    {
      "id": "sixt-jurmala",
      "location": {
        "city": "J\u016brmala",
        "country": "LV",
        "latitude": 56.9732,
        "longitude": 23.8225
      },
      "name": "SiXT"
    },
    {
      "id": "nextbike-wrneustadt",
      "location": {
        "city": "Wr.Neustadt",
        "country": "AT",
        "latitude": 47.8167,
        "longitude": 16.2426
      },
      "name": "Nextbike"
    },
    {
      "id": "nextbike-haag",
      "location": {
        "city": "Haag",
        "country": "AT",
        "latitude": 48.0643,
        "longitude": 14.7368
      },
      "name": "Nextbike"
    },
    {
      "id": "usedomrad-usedom",
      "location": {
        "city": "Usedom",
        "country": "DE",
        "latitude": 53.9779,
        "longitude": 13.9925
      },
      "name": "UsedomRad"
    },
    {
      "id": "swa-rad-augsburg",
      "location": {
        "city": "Augsburg",
        "country": "DE",
        "latitude": 48.3647,
        "longitude": 10.8916
      },
      "name": "SWA Rad"
    },
    {
      "id": "nextbike-lunz-am-see",
      "location": {
        "city": "Lunz am See",
        "country": "AT",
        "latitude": 47.8618,
        "longitude": 15.0348
      },
      "name": "Nextbike"
    },
    {
      "id": "vrn-heidelberg",
      "location": {
        "city": "Heidelberg",
        "country": "DE",
        "latitude": 49.4023,
        "longitude": 8.67577
      },
      "name": "VRN"
    },
    {
      "id": "vrn-mannheim",
      "location": {
        "city": "Mannheim",
        "country": "DE",
        "latitude": 49.4869,
        "longitude": 8.45638
      },
      "name": "VRN"
    },
    {
      "id": "stadtrad-innsbruck",
      "location": {
        "city": "Innsbruck",
        "country": "AT",
        "latitude": 47.2632,
        "longitude": 11.3961
      },
      "name": "Stadtrad"
    },
    {
      "id": "ebikestation-bietigheim-bissingen",
      "location": {
        "city": "Bietigheim-Bissingen",
        "country": "DE",
        "latitude": 48.9495,
        "longitude": 9.12518
      },
      "name": "ebikestation"
    },
    {
      "id": "grad-sibenik-sibenik",
      "location": {
        "city": "\u0160ibenik",
        "country": "HR",
        "latitude": 43.733,
        "longitude": 15.8982
      },
      "name": "Grad \u0160ibenik"
    },
    {
      "id": "karbis-seferihisar",
      "location": {
        "city": "Seferihisar",
        "country": "TR",
        "latitude": 38.1962,
        "longitude": 26.8386
      },
      "name": "KARBIS"
    },
    {
      "id": "ebikestation-schwieberdingen",
      "location": {
        "city": "Schwieberdingen",
        "country": "DE",
        "latitude": 48.8723,
        "longitude": 9.07419
      },
      "name": "ebikestation"
    },
    {
      "id": "ibike-king-abdullah-economic-city",
      "location": {
        "city": "King Abdullah Economic City",
        "country": "SA",
        "latitude": 22.4053,
        "longitude": 39.0815
      },
      "name": "iBike"
    },
    {
      "id": "vrn-ludwigshafen",
      "location": {
        "city": "Ludwigshafen",
        "country": "DE",
        "latitude": 49.4741,
        "longitude": 8.43287
      },
      "name": "VRN"
    },
    {
      "id": "ebikestation-waiblingen",
      "location": {
        "city": "Waiblingen",
        "country": "DE",
        "latitude": 48.8333,
        "longitude": 9.31667
      },
      "name": "ebikestation"
    },
    {
      "id": "nextbike-university-of-warwick",
      "location": {
        "city": "University of Warwick",
        "country": "GB",
        "latitude": 52.3815,
        "longitude": -1.56159
      },
      "name": "Nextbike"
    },
    {
      "id": "vrn-speyer",
      "location": {
        "city": "Speyer",
        "country": "DE",
        "latitude": 49.3126,
        "longitude": 8.45295
      },
      "name": "VRN"
    },
    {
      "id": "nextbike-lviv",
      "location": {
        "city": "Lviv",
        "country": "UA",
        "latitude": 49.8402,
        "longitude": 24.0182
      },
      "name": "Nextbike"
    },
    {
      "id": "ebikestation-vaihingen-an-der-enz",
      "location": {
        "city": "Vaihingen an der Enz",
        "country": "DE",
        "latitude": 48.9334,
        "longitude": 8.96121
      },
      "name": "ebikestation"
    },
    {
      "id": "ebikestation-herrenberg",
      "location": {
        "city": "Herrenberg",
        "country": "DE",
        "latitude": 48.595,
        "longitude": 8.86716
      },
      "name": "ebikestation"
    },
    {
      "id": "ebikestation-goppingen",
      "location": {
        "city": "G\u00f6ppingen",
        "country": "DE",
        "latitude": 48.7054,
        "longitude": 9.65125
      },
      "name": "ebikestation"
    },
    {
      "id": "ebikestation-ludwigsburg",
      "location": {
        "city": "Ludwigsburg",
        "country": "DE",
        "latitude": 48.8941,
        "longitude": 9.19546
      },
      "name": "ebikestation"
    },
    {
      "id": "grad-gospic-gospic",
      "location": {
        "city": "Gospi\u0107",
        "country": "HR",
        "latitude": 44.5469,
        "longitude": 15.375
      },
      "name": "Grad Gospi\u0107"
    },
    {
      "id": "ebikestation-kirchheim-am-neckar",
      "location": {
        "city": "Kirchheim am Neckar",
        "country": "DE",
        "latitude": 49.04,
        "longitude": 9.14441
      },
      "name": "ebikestation"
    },
    {
      "id": "grad-karlovac-karlovac",
      "location": {
        "city": "Karlovac",
        "country": "HR",
        "latitude": 45.4905,
        "longitude": 15.5503
      },
      "name": "Grad Karlovac"
    },
    {
      "id": "flashfleet-kent-state-university-kent-state-university",
      "location": {
        "city": "Kent State University",
        "country": "US",
        "latitude": 41.1492,
        "longitude": -81.3363
      },
      "name": "Flashfleet Kent State University"
    },
    {
      "id": "grad-slavonski-brod-slavonski-brod",
      "location": {
        "city": "Slavonski Brod",
        "country": "HR",
        "latitude": 45.1656,
        "longitude": 18.0183
      },
      "name": "Grad Slavonski Brod"
    },
    {
      "id": "santander-cycles-mk-milton-keynes",
      "location": {
        "city": "Milton Keynes",
        "country": "GB",
        "latitude": 52.0406,
        "longitude": -0.759417
      },
      "name": "Santander Cycles MK"
    },
    {
      "id": "bykystations-uae-al-ain",
      "location": {
        "city": "Al Ain",
        "country": "AE",
        "latitude": 24.2989,
        "longitude": 54.6979
      },
      "name": "BYKYstations UAE"
    },
    {
      "id": "nextbike-hergiswil",
      "location": {
        "city": "Hergiswil",
        "country": "CH",
        "latitude": 46.9905,
        "longitude": 8.30829
      },
      "name": "Nextbike"
    },
    {
      "id": "grad-makarska-makarska",
      "location": {
        "city": "Makarska",
        "country": "HR",
        "latitude": 43.2992,
        "longitude": 17.0184
      },
      "name": "Grad Makarska"
    },
    {
      "id": "opcina-brinje-brinje",
      "location": {
        "city": "Brinje",
        "country": "HR",
        "latitude": 44.9977,
        "longitude": 15.1258
      },
      "name": "Op\u0107ina Brinje"
    },
    {
      "id": "grad-zadar-zadar",
      "location": {
        "city": "Zadar",
        "country": "HR",
        "latitude": 44.0058,
        "longitude": 15.2183
      },
      "name": "Grad Zadar"
    },
    {
      "id": "opcina-lastovo-lastovo",
      "location": {
        "city": "Lastovo",
        "country": "HR",
        "latitude": 42.7626,
        "longitude": 16.8719
      },
      "name": "Op\u0107ina Lastovo"
    },
    {
      "id": "vrn-bensheim",
      "location": {
        "city": "Bensheim",
        "country": "DE",
        "latitude": 49.6803,
        "longitude": 8.6189
      },
      "name": "VRN"
    },
    {
      "id": "grad-ivanic-grad-ivanic-grad",
      "location": {
        "city": "Ivanic Grad",
        "country": "HR",
        "latitude": 45.7062,
        "longitude": 16.3919
      },
      "name": "Grad Ivani\u0107-Grad"
    },
    {
      "id": "ordu-bisikletli-ordu",
      "location": {
        "city": "Ordu",
        "country": "TR",
        "latitude": 40.9702,
        "longitude": 37.8707
      },
      "name": "Ordu Bisikletli"
    },
    {
      "id": "nextbike-sarajevo",
      "location": {
        "city": "Sarajevo",
        "country": "BA",
        "latitude": 43.85,
        "longitude": 18.39
      },
      "name": "Nextbike"
    },
    {
      "id": "co-bikes-exeter",
      "location": {
        "city": "Exeter",
        "country": "GB",
        "latitude": 50.7272,
        "longitude": -3.53605
      },
      "name": "Co-bikes"
    },
    {
      "id": "nextbike-auckland-waterfront",
      "location": {
        "city": "Auckland Waterfront",
        "country": "NZ",
        "latitude": -36.841,
        "longitude": 174.763
      },
      "name": "Nextbike"
    },
    {
      "id": "nextbike-edinburgh",
      "location": {
        "city": "Edinburgh",
        "country": "GB",
        "latitude": 55.9526,
        "longitude": -3.18902
      },
      "name": "Nextbike"
    },
    {
      "id": "nextbike-aruba",
      "location": {
        "city": "Aruba",
        "country": "AW",
        "latitude": 12.5137,
        "longitude": -69.9757
      },
      "name": "Nextbike"
    },
    {
      "id": "nextbike-hyderabad",
      "location": {
        "city": "Hyderabad",
        "country": "IN",
        "latitude": 17.38,
        "longitude": 78.4725
      },
      "name": "Nextbike"
    },
    {
      "id": "sixt-jalgrattarent-tallinn",
      "location": {
        "city": "Tallinn",
        "country": "EE",
        "latitude": 59.4325,
        "longitude": 24.7295
      },
      "name": "SIXT jalgrattarent"
    },
    {
      "id": "bike4all-byblos",
      "location": {
        "city": "Byblos",
        "country": "LB",
        "latitude": 34.1236,
        "longitude": 35.6511
      },
      "name": "bike4all"
    },
    {
      "id": "chartered-bike-bhopal-bhopal",
      "location": {
        "city": "Bhopal",
        "country": "IN",
        "latitude": 23.2467,
        "longitude": 77.411
      },
      "name": "Chartered Bike"
    },
    {
      "id": "nextbike-rotterdam",
      "location": {
        "city": "Rotterdam",
        "country": "IN",
        "latitude": 51.9224,
        "longitude": 4.47265
      },
      "name": "Nextbike"
    },
    {
      "id": "nextbike-stans",
      "location": {
        "city": "Stans",
        "country": "CH",
        "latitude": 46.9593,
        "longitude": 8.36836
      },
      "name": "Nextbike"
    },
    {
      "id": "vrn-worms",
      "location": {
        "city": "Worms",
        "country": "DE",
        "latitude": 49.6394,
        "longitude": 8.34618
      },
      "name": "VRN"
    },
    {
      "id": "nextbike-victoria",
      "location": {
        "city": "Victoria",
        "country": "CA",
        "latitude": 48.4298,
        "longitude": -123.361
      },
      "name": "Nextbike"
    },
    {
      "id": "nederland-maastricht",
      "location": {
        "city": "Maastricht",
        "country": "NL",
        "latitude": 50.8514,
        "longitude": 5.69129
      },
      "name": "Nederland"
    },
    {
      "id": "nextbike-stansstad",
      "location": {
        "city": "Stansstad",
        "country": "CH",
        "latitude": 46.9801,
        "longitude": 8.34098
      },
      "name": "Nextbike"
    },
    {
      "id": "byky-bikes-kuwait",
      "location": {
        "city": "Kuwait",
        "country": "KW",
        "latitude": 29.3632,
        "longitude": 47.487
      },
      "name": "BYKY Bikes"
    },
    {
      "id": "nextbike-horw",
      "location": {
        "city": "Horw",
        "country": "CH",
        "latitude": 47.0188,
        "longitude": 8.30828
      },
      "name": "Nextbike"
    },
    {
      "id": "vrn-burstadt",
      "location": {
        "city": "B\u00fcrstadt",
        "country": "DE",
        "latitude": 49.6461,
        "longitude": 8.44917
      },
      "name": "VRN"
    },
    {
      "id": "nextbike-gross-enzersdorf",
      "location": {
        "city": "Gro\u00df Enzersdorf",
        "country": "AT",
        "latitude": 48.1986,
        "longitude": 16.5496
      },
      "name": "Nextbike"
    },
    {
      "id": "nextbike-klagenfurt",
      "location": {
        "city": "Klagenfurt",
        "country": "AT",
        "latitude": 46.6335,
        "longitude": 14.3085
      },
      "name": "Nextbike"
    },
    {
      "id": "vrn-kaiserslautern",
      "location": {
        "city": "Kaiserslautern",
        "country": "DE",
        "latitude": 49.4413,
        "longitude": 7.75566
      },
      "name": "VRN"
    },
    {
      "id": "nextbike-amstetten",
      "location": {
        "city": "Amstetten",
        "country": "AT",
        "latitude": 48.1218,
        "longitude": 14.8774
      },
      "name": "Nextbike"
    },
    {
      "id": "grad-velika-gorica-velika-gorica",
      "location": {
        "city": "Velika Gorica",
        "country": "HR",
        "latitude": 45.7161,
        "longitude": 16.0683
      },
      "name": "Grad Velika Gorica"
    },
    {
      "id": "grad-sisak-sisak",
      "location": {
        "city": "Sisak",
        "country": "HR",
        "latitude": 45.4875,
        "longitude": 16.3753
      },
      "name": "Grad Sisak"
    },
    {
      "id": "nextbike-salzburg",
      "location": {
        "city": "Salzburg ",
        "country": "AT",
        "latitude": 47.8014,
        "longitude": 13.0458
      },
      "name": "Nextbike"
    },
    {
      "id": "grad-metkovic-metkovic",
      "location": {
        "city": "Metkovi\u0107",
        "country": "HR",
        "latitude": 43.0654,
        "longitude": 17.642
      },
      "name": "Grad Metkovi\u0107"
    },
    {
      "id": "nextbike-tuzla",
      "location": {
        "city": "Tuzla",
        "country": "BA",
        "latitude": 44.5392,
        "longitude": 18.675
      },
      "name": "Nextbike"
    },
    {
      "id": "nextbike-panama",
      "location": {
        "city": "Panama",
        "country": "IN",
        "latitude": 8.95284,
        "longitude": -79.5369
      },
      "name": "Nextbike"
    },
    {
      "id": "porec-bike-share-porec",
      "location": {
        "city": "Pore\u010d",
        "country": "HR",
        "latitude": 45.2292,
        "longitude": 13.6035
      },
      "name": "Porec bike share"
    },
    {
      "id": "nextbike-dordrecht",
      "location": {
        "city": "Dordrecht",
        "country": "NL",
        "latitude": 51.817158,
        "longitude": 4.648161
      },
      "name": "Nextbike"
    },
    {
      "id": "trondheim-bysykkel",
      "location": {
        "city": "Trondheim",
        "country": "NO",
        "latitude": 63.4307238,
        "longitude": 10.3936781
      },
      "name": "Bysykkel"
    },
    {
      "id": "rower-miejski-szamotuly-rms-szamotuly",
      "location": {
        "city": "Szamotu\u0142y",
        "country": "PL",
        "latitude": 52.6112,
        "longitude": 16.5819
      },
      "name": "Rower Miejski Szamotu\u0142y"
    },
    {
      "id": "piaseczynski-rower-miejski-piaseczno",
      "location": {
        "city": "Piaseczno",
        "country": "PL",
        "latitude": 52.0733,
        "longitude": 21.0269
      },
      "name": "Piaseczy\u0144ski Rower Miejski"
    },
    {
      "id": "koszalinski-rower-miejski-koszalin",
      "location": {
        "city": "Koszalin",
        "country": "PL",
        "latitude": 54.2026,
        "longitude": 16.1678
      },
      "name": "Koszali\u0144ski Rower Miejski"
    },
    {
      "id": "sosnowiecki-rower-miejski-sosnowiec",
      "location": {
        "city": "Sosnowiec",
        "country": "PL",
        "latitude": 50.2823,
        "longitude": 19.1269
      },
      "name": "Sosnowiecki Rower Miejski"
    },
    {
      "id": "arriva-nitra",
      "location": {
        "city": "Nitra",
        "country": "SK",
        "latitude": 48.3088,
        "longitude": 18.0783
      },
      "name": "Arriva"
    },
    {
      "id": "oslo-bysykkel",
      "location": {
        "city": "Oslo",
        "country": "NO",
        "latitude": 59.913869,
        "longitude": 10.752245
      },
      "name": "Bysykkel"
    },
    {
      "id": "bergen-bysykkel",
      "location": {
        "city": "Bergen",
        "country": "NO",
        "latitude": 60.391263,
        "longitude": 5.322054
      },
      "name": "Bysykkel"
    },
    {
      "id": "baerum-bysykkel",
      "location": {
        "city": "B\u00e6rum",
        "country": "NO",
        "latitude": 59.89455,
        "longitude": 10.546343
      },
      "name": "Bysykkel"
    },
    {
      "id": "bubi",
      "location": {
        "city": "Budapest",
        "country": "HU",
        "latitude": 47.497912,
        "longitude": 19.040235
      },
      "name": "MOL Bubi"
    },
    {
      "id": "debikegoiania",
      "location": {
        "city": "Goi\u00e2nia",
        "country": "BR",
        "latitude": -16.670492,
        "longitude": -49.259535
      },
      "name": "GynDebike"
    },
    {
      "id": "bikebelem",
      "location": {
        "city": "Bel\u00e9m",
        "country": "BR",
        "latitude": -1.4600794,
        "longitude": -48.490865
      },
      "name": "Bike Bel\u00e9m"
    },
    {
      "id": "whitebikes",
      "location": {
        "city": "Bratislava",
        "country": "SK",
        "latitude": 48.149424,
        "longitude": 17.113922
      },
      "name": "WhiteBikes"
    },
    {
      "id": "bicilascondes",
      "location": {
        "city": "Las Condes",
        "country": "CL",
        "latitude": -33.401944,
        "longitude": -70.55
      },
      "name": "Bici las Condes"
    },
    {
      "id": "le-velo-star",
      "location": {
        "city": "Rennes",
        "country": "FR",
        "latitude": 48.114167,
        "longitude": -1.680833
      },
      "name": "LE v\u00e9lo Star"
    },
    {
      "id": "cykl",
      "location": {
        "city": "Wageningen",
        "country": "NL",
        "latitude": 51.974,
        "longitude": 5.6671
      },
      "name": "Cykl"
    },
    {
      "id": "nextbike-cardiff",
      "location": {
        "city": "Cardiff",
        "country": "GB",
        "latitude": 51.4822,
        "longitude": -3.18089
      },
      "name": "Nextbike"
    },
    {
      "id": "bixi-montreal",
      "location": {
        "city": "Montr\u00e9al, QC",
        "country": "CA",
        "latitude": 45.508693,
        "longitude": -73.553928
      },
      "name": "Bixi"
    },
    {
      "id": "bikerecife",
      "location": {
        "city": "Recife",
        "country": "BR",
        "latitude": -8.047129,
        "longitude": -34.873437
      },
      "name": "BikeRecife"
    },
    {
      "id": "bikesampa",
      "location": {
        "city": "S\u00e3o Paulo",
        "country": "BR",
        "latitude": -23.55,
        "longitude": -46.6333
      },
      "name": "BikeSampa"
    },
    {
      "id": "bikerio",
      "location": {
        "city": "Rio de Janeiro",
        "country": "BR",
        "latitude": -22.904315,
        "longitude": -43.184776
      },
      "name": "BikeRio"
    },
    {
      "id": "bikesalvador",
      "location": {
        "city": "Salvador",
        "country": "BR",
        "latitude": -12.973959,
        "longitude": -38.508171
      },
      "name": "BikeSalvador"
    },
    {
      "id": "bikepoa",
      "location": {
        "city": "Porto Alegre",
        "country": "BR",
        "latitude": -30.033079,
        "longitude": -51.23654
      },
      "name": "BikePOA"
    },
    {
      "id": "mibici-guadalajara",
      "location": {
        "city": "Guadalajara",
        "country": "MX",
        "latitude": 20.6737883,
        "longitude": -103.3704325
      },
      "name": "MIBICI"
    },
    {
      "id": "czestochowski-rower-miejski-czestochowa",
      "location": {
        "city": "Cz\u0119stochowa",
        "country": "PL",
        "latitude": 50.812,
        "longitude": 19.1375
      },
      "name": "Cz\u0119stochowski Rower Miejski"
    },
    {
      "id": "rower-miejski-w-ostrowie-wielkopolskim-ostrow-wielkopolski",
      "location": {
        "city": "Ostr\u00f3w Wielkopolski",
        "country": "PL",
        "latitude": 51.65,
        "longitude": 17.8253
      },
      "name": "Rower Miejski w Ostrowie Wielkopolskim"
    },
    {
      "id": "pobiedziski-rower-miejski-pobiedziska",
      "location": {
        "city": "Pobiedziska",
        "country": "PL",
        "latitude": 52.4765,
        "longitude": 17.2866
      },
      "name": "Pobiedziski Rower Miejski"
    },
    {
      "id": "nextbike-swietochlowice",
      "location": {
        "city": "\u015awi\u0119toch\u0142owice",
        "country": "PL",
        "latitude": 50.2956,
        "longitude": 18.9165
      },
      "name": "Nextbike"
    },
    {
      "id": "nextbike-jastrzebie-zdroj",
      "location": {
        "city": "Jastrz\u0119bie-Zdr\u00f3j",
        "country": "PL",
        "latitude": 49.9497,
        "longitude": 18.599
      },
      "name": "Nextbike"
    },
    {
      "id": "nextbike-wiesbaden",
      "location": {
        "city": "Wiesbaden",
        "country": "DE",
        "latitude": 50.0709,
        "longitude": 8.24322
      },
      "name": "Nextbike"
    },
    {
      "id": "nextbike-marburg",
      "location": {
        "city": "Marburg",
        "country": "DE",
        "latitude": 50.8019,
        "longitude": 8.76444
      },
      "name": "Nextbike"
    }
  ]
}
